{"000": {"name": "Greenwich", "country": "United Kingdom", "state": "England", "county": "", "city": "London", "lon": 0.0, "lat": 51.4773761482203}, "001": {"name": "Crowborough", "country": "United Kingdom", "state": "England", "county": "East Sussex", "city": "Wealden", "lon": 0.1542, "lat": 51.051832363391526}, "002": {"name": "Rayleigh", "country": "United Kingdom", "state": "England", "county": "Essex", "city": "Chelmsford", "lon": 0.62, "lat": 51.65297629763303}, "003": {"name": "Montpellier", "country": "France", "state": "Occitania", "county": "H\u00e9rault", "city": "", "lon": 3.9, "lat": 43.650522662423}, "004": {"name": "Toulouse", "country": "France", "state": "Occitania", "county": "Haute-Garonne", "city": "Toulouse", "lon": 1.4625, "lat": 43.61227656544112}, "005": {"name": "Meudon", "country": "France", "state": "Ile-de-France", "county": "Hauts-de-Seine", "city": "", "lon": 2.231, "lat": 48.80506623716153}, "006": {"name": "Fabra Observatory, Barcelona", "country": "Spain", "state": "Catalonia", "county": "Barcelon\u00e8s", "city": "Barcelona", "lon": 2.12417, "lat": 41.41852142056473}, "007": {"name": "Paris", "country": "France", "state": "Ile-de-France", "county": "", "city": "Paris", "lon": 2.33675, "lat": 48.83638083048515}, "008": {"name": "Algiers-Bouzareah", "country": "Algeria", "state": "Algiers", "county": "Bab El Oued District", "city": "", "lon": 3.0355, "lat": 36.801460146741}, "009": {"name": "Berne-Uecht", "country": "Switzerland", "state": "Bern", "county": "Bern-Mittelland administrative district", "city": "Bern", "lon": 7.4417, "lat": 46.95378997383701}, "010": {"name": "Caussols", "country": "France", "state": "Provence-Alpes-C\u00f4te d'Azur", "county": "Maritime Alps", "city": "", "lon": 6.92124, "lat": 43.7509420699445}, "011": {"name": "Wetzikon", "country": "Switzerland", "state": "Zurich", "county": "Bezirk Hinwil", "city": "", "lon": 8.7975, "lat": 47.31932370597246}, "012": {"name": "Uccle", "country": "Belgium", "state": "", "county": "Brussels-Capital", "city": "", "lon": 4.35821, "lat": 50.798595943540874}, "013": {"name": "Leiden", "country": "Netherlands", "state": "South Holland", "county": "", "city": "Leiden", "lon": 4.48397, "lat": 52.15494425390297}, "014": {"name": "Marseilles", "country": "France", "state": "Provence-Alpes-C\u00f4te d'Azur", "county": "Bouches-du-Rh\u00f4ne", "city": "Marseille", "lon": 5.39509, "lat": 43.30586592768782}, "015": {"name": "Utrecht", "country": "Netherlands", "state": "Utrecht", "county": "", "city": "Utrecht", "lon": 5.12929, "lat": 52.08546025822671}, "016": {"name": "Besancon", "country": "France", "state": "Bourgogne-Franche-Comt\u00e9", "county": "Doubs", "city": "Besan\u00e7on", "lon": 5.9893, "lat": 47.24999873033378}, "017": {"name": "Hoher List", "country": "Germany", "state": "Rhineland-Palatinate", "county": "Landkreis Vulkaneifel", "city": "", "lon": 6.84924, "lat": 50.1613848042709}, "018": {"name": "Dusseldorf-Bilk", "country": "Germany", "state": "North Rhine-Westphalia", "county": "", "city": "Dusseldorf", "lon": 6.7612, "lat": 51.20698841867667}, "019": {"name": "Neuchatel", "country": "Switzerland", "state": "Neuch\u00e2tel", "county": "", "city": "", "lon": 6.9575, "lat": 46.99743675799892}, "020": {"name": "Nice", "country": "France", "state": "Provence-Alpes-C\u00f4te d'Azur", "county": "Maritime Alps", "city": "Nice", "lon": 7.3004, "lat": 43.72153899108607}, "021": {"name": "Karlsruhe", "country": "Germany", "state": "Baden-W\u00fcrttemberg", "county": "", "city": "Karlsruhe", "lon": 8.3855, "lat": 49.024021204610584}, "022": {"name": "Pino Torinese", "country": "Italy", "state": "Piedmont", "county": "Torino", "city": "", "lon": 7.7748, "lat": 45.03780212917924}, "023": {"name": "Wiesbaden", "country": "Germany", "state": "Hesse", "county": "", "city": "Wiesbaden", "lon": 8.2625, "lat": 50.08118424629033}, "024": {"name": "Heidelberg-Konigstuhl", "country": "Germany", "state": "Baden-W\u00fcrttemberg", "county": "", "city": "Heidelberg", "lon": 8.7216, "lat": 49.39861534905769}, "025": {"name": "Stuttgart", "country": "Germany", "state": "Baden-W\u00fcrttemberg", "county": "", "city": "Stuttgart", "lon": 9.1965, "lat": 48.782525494177776}, "026": {"name": "Berne-Zimmerwald", "country": "Switzerland", "state": "Bern", "county": "Bern-Mittelland administrative district", "city": "Wald (BE)", "lon": 7.46511, "lat": 46.87709869831594}, "027": {"name": "Milan", "country": "Italy", "state": "Lombardy", "county": "Milan", "city": "Milan", "lon": 9.1912, "lat": 45.46633456901016}, "028": {"name": "Wurzburg", "country": "Germany", "state": "Bavaria", "county": "", "city": "W\u00fcrzburg", "lon": 9.9363, "lat": 49.791032419654165}, "029": {"name": "Hamburg-Bergedorf", "country": "Germany", "state": "", "county": "", "city": "Hamburg", "lon": 10.2406, "lat": 53.479705948775766}, "030": {"name": "Arcetri Observatory, Florence", "country": "Italy", "state": "Tuscany", "county": "Florence", "city": "Florence", "lon": 11.25446, "lat": 43.75064501448286}, "031": {"name": "Sonneberg", "country": "Germany", "state": "Thuringia", "county": "Landkreis Sonneberg", "city": "", "lon": 11.18985, "lat": 50.37739089890215}, "032": {"name": "Jena", "country": "Germany", "state": "Thuringia", "county": "", "city": "Jena", "lon": 11.58295, "lat": 50.9252561419169}, "033": {"name": "Karl Schwarzschild Observatory, Tautenburg", "country": "Germany", "state": "Thuringia", "county": "Saale-Holzland-Kreis", "city": "", "lon": 11.71124, "lat": 50.980136704271004}, "034": {"name": "Monte Mario Observatory, Rome", "country": "Italy", "state": "Lazio", "county": "Roma Capitale", "city": "Rome", "lon": 12.45246, "lat": 41.92244848635044}, "035": {"name": "Copenhagen", "country": "Denmark", "state": "Capital Region of Denmark", "county": "", "city": "Copenhagen", "lon": 12.57592, "lat": 55.68686538229185}, "036": {"name": "Castel Gandolfo", "country": "Italy", "state": "Lazio", "county": "Roma Capitale", "city": "", "lon": 12.6504, "lat": 41.74746597503216}, "037": {"name": "Collurania Observatory, Teramo", "country": "Italy", "state": "Abruzzo", "county": "Teramo", "city": "Teramo", "lon": 13.7333, "lat": 42.657467204793434}, "038": {"name": "Trieste", "country": "Italy", "state": "Friuli-Venezia Giulia", "county": "Trieste", "city": "Triest", "lon": 13.7704, "lat": 45.64327019070436}, "039": {"name": "Lund", "country": "Sweden", "state": "", "county": "Sk\u00e5ne County", "city": "", "lon": 13.1874, "lat": 55.697861516811315}, "040": {"name": "Lohrmann Institute, Dresden", "country": "Germany", "state": "Saxony", "county": "", "city": "Dresden", "lon": 13.7298, "lat": 51.03114454821571}, "041": {"name": "Innsbruck", "country": "Austria", "state": "Tyrol", "county": "", "city": "Innsbruck", "lon": 11.38083, "lat": 47.26815186328124}, "042": {"name": "Potsdam", "country": "Germany", "state": "Brandenburg", "county": "", "city": "Potsdam", "lon": 13.06428, "lat": 52.37965167725378}, "043": {"name": "Asiago Astrophysical Observatory, Padua", "country": "Italy", "state": "Veneto", "county": "Vicenza", "city": "", "lon": 11.52643, "lat": 45.86644464330045}, "044": {"name": "Capodimonte Observatory, Naples", "country": "Italy", "state": "Campania", "county": "Napoli", "city": "Naples", "lon": 14.2559, "lat": 40.86293814587133}, "045": {"name": "Vienna (since 1879)", "country": "Austria", "state": "", "county": "", "city": "Vienna", "lon": 16.339, "lat": 48.2319117495139}, "046": {"name": "Klet Observatory, Ceske Budejovice", "country": "Czechia", "state": "Southwest", "county": "Jiho\u010desk\u00fd kraj", "city": "", "lon": 14.2881, "lat": 48.86329046736587}, "047": {"name": "Poznan", "country": "Poland", "state": "Greater Poland Voivodeship", "county": "", "city": "Poznan", "lon": 16.8782, "lat": 52.39853376792865}, "048": {"name": "Hradec Kralove", "country": "Czechia", "state": "Northeast", "county": "Kr\u00e1lov\u00e9hradeck\u00fd kraj", "city": "Hradec Kr\u00e1lov\u00e9", "lon": 15.8408, "lat": 50.17732913742306}, "049": {"name": "Uppsala-Kvistaberg", "country": "Sweden", "state": "", "county": "Stockholm County", "city": "", "lon": 17.6067, "lat": 59.50033314919241}, "050": {"name": "Stockholm (before 1931)", "country": "Sweden", "state": "", "county": "Stockholm County", "city": "Stockholm", "lon": 18.0582, "lat": 59.34224487914656}, "051": {"name": "Royal Observatory, Cape of Good Hope", "country": "South Africa", "state": "Western Cape", "county": "City of Cape Town", "city": "Cape Town", "lon": 18.4766, "lat": -33.93394407958951}, "052": {"name": "Stockholm-Saltsjobaden", "country": "Sweden", "state": "", "county": "Stockholm County", "city": "", "lon": 18.3083, "lat": 59.271646077939835}, "053": {"name": "Konkoly Observatory, Budapest (since 1933)", "country": "Hungary", "state": "", "county": "", "city": "Budapest", "lon": 18.9642, "lat": 47.499601657059465}, "054": {"name": "Brorfelde", "country": "Denmark", "state": "Region Zealand", "county": "", "city": "", "lon": 11.6654, "lat": 55.621915429848485}, "055": {"name": "Cracow", "country": "Poland", "state": "Lesser Poland Voivodeship", "county": "", "city": "Krakow", "lon": 19.9596, "lat": 50.06451819016143}, "056": {"name": "Skalnate Pleso", "country": "Slovakia", "state": "Region of Pre\u0161ov", "county": "District of Poprad", "city": "", "lon": 20.23418, "lat": 49.189562684447154}, "057": {"name": "Belgrade", "country": "Serbia", "state": "Central Serbia", "county": "City of Belgrade", "city": "Belgrade", "lon": 20.5133, "lat": 44.8036492220208}, "058": {"name": "Kaliningrad", "country": "Russia", "state": "Kaliningrad", "county": "Kaliningrad", "city": "Kaliningrad", "lon": 20.495, "lat": 54.712816608420795}, "059": {"name": "Lomnicky Stit", "country": "Slovakia", "state": "Region of Pre\u0161ov", "county": "District of Poprad", "city": "", "lon": 20.2201, "lat": 49.19597535884682}, "060": {"name": "Warsaw-Ostrowik", "country": "Poland", "state": "Masovian Voivodeship", "county": "Otwock County", "city": "", "lon": 21.42, "lat": 52.090010820055625}, "061": {"name": "Uzhhorod", "country": "Ukraine", "state": "Zakarpattia Oblast", "county": "", "city": "Uzhhorod", "lon": 22.2985, "lat": 48.63346647366357}, "062": {"name": "Turku", "country": "Finland", "state": "", "county": "Southwest Finland", "city": "Turku", "lon": 22.2293, "lat": 60.45242610854437}, "063": {"name": "Turku-Tuorla", "country": "Finland", "state": "", "county": "Southwest Finland", "city": "", "lon": 22.445, "lat": 60.41578741014008}, "064": {"name": "Turku-Kevola", "country": "Finland", "state": "", "county": "Southwest Finland", "city": "", "lon": 22.75, "lat": 60.420402553479164}, "065": {"name": "Traunstein", "country": "Germany", "state": "Bavaria", "county": "Landkreis Traunstein", "city": "", "lon": 12.6318, "lat": 47.862146788655465}, "066": {"name": "Athens", "country": "Greece", "state": "Attica", "county": "Regional Unit of Central Athens", "city": "Athens", "lon": 23.71817, "lat": 37.97226834210456}, "067": {"name": "Lviv University Observatory", "country": "Ukraine", "state": "Lviv Oblast", "county": "", "city": "Lviv", "lon": 24.0297, "lat": 49.83281847810645}, "068": {"name": "Lviv Polytechnic Institute", "country": "Ukraine", "state": "Lviv Oblast", "county": "", "city": "Lviv", "lon": 24.0142, "lat": 49.83648881951345}, "069": {"name": "Baldone", "country": "Latvia", "state": "Vidzeme", "county": "\u0136ekavas novads", "city": "Baldones pagasts", "lon": 24.4042, "lat": 56.7731166029231}, "070": {"name": "Vilnius (before 1939)", "country": "Lithuania", "state": "Vilnius County", "county": "", "city": "Vilnius", "lon": 25.2865, "lat": 54.68310763060295}, "071": {"name": "NAO Rozhen, Smolyan", "country": "Bulgaria", "state": "", "county": "Smolyan", "city": "", "lon": 24.73782, "lat": 41.69312009901107}, "072": {"name": "Scheuren Observatory", "country": "Germany", "state": "North Rhine-Westphalia", "county": "Rheinisch-Bergischer Kreis", "city": "", "lon": 7.17, "lat": 51.08891181013217}, "073": {"name": "Bucharest", "country": "Romania", "state": "", "county": "", "city": "Bucharest", "lon": 26.09391, "lat": 44.41199635937644}, "074": {"name": "Boyden Observatory, Bloemfontein", "country": "South Africa", "state": "Free State", "county": "Mangaung Metropolitan Municipality", "city": "", "lon": 26.4058, "lat": -29.03813511415767}, "075": {"name": "Tartu", "country": "Estonia", "state": "", "county": "Tartu maakond", "city": "Tartu", "lon": 26.7216, "lat": 58.37971217131124}, "076": {"name": "Johannesburg-Hartbeespoort", "country": "South Africa", "state": "North West", "county": "Bojanala Platinum District Municipality", "city": "Madibeng Local Municipality", "lon": 27.8768, "lat": -25.7727673334958}, "077": {"name": "Yale-Columbia Station, Johannesburg", "country": "South Africa", "state": "Gauteng", "county": "City of Johannesburg Metropolitan Municipality", "city": "Johannesburg", "lon": 28.0292, "lat": -26.187258676399722}, "078": {"name": "Johannesburg", "country": "South Africa", "state": "Gauteng", "county": "City of Johannesburg Metropolitan Municipality", "city": "Johannesburg", "lon": 28.075, "lat": -26.181857139458092}, "079": {"name": "Radcliffe Observatory, Pretoria", "country": "South Africa", "state": "Gauteng", "county": "City of Tshwane Metropolitan Municipality", "city": "Pretoria", "lon": 28.2288, "lat": -25.78799570321267}, "080": {"name": "Istanbul", "country": "Turkey", "state": "", "county": "", "city": "Istanbul", "lon": 28.9667, "lat": 41.01270143503048}, "081": {"name": "Leiden Station, Johannesburg", "country": "South Africa", "state": "North West", "county": "Bojanala Platinum District Municipality", "city": "Madibeng Local Municipality", "lon": 27.8768, "lat": -25.7727673334958}, "082": {"name": "St. Polten", "country": "Austria", "state": "Lower Austria", "county": "Bezirk St. P\u00f6lten", "city": "Gemeinde Michelbach", "lon": 15.7561, "lat": 48.08797529752517}, "083": {"name": "Holosiivskyi district-Kyiv", "country": "Ukraine", "state": "", "county": "", "city": "Kyiv", "lon": 30.5056, "lat": 50.36500500644331}, "084": {"name": "Pulkovo", "country": "Russia", "state": "Saint Petersburg", "county": "", "city": "Saint Petersburg", "lon": 30.3274, "lat": 59.77211540728952}, "085": {"name": "Kyiv", "country": "Ukraine", "state": "", "county": "", "city": "Kyiv", "lon": 30.5023, "lat": 50.452952862489724}, "086": {"name": "Odesa", "country": "Ukraine", "state": "Odesa Oblast", "county": "", "city": "Odesa", "lon": 30.7582, "lat": 46.476824380405105}, "087": {"name": "Helwan", "country": "Egypt", "state": "Cairo", "county": "", "city": "15th of May", "lon": 31.3411, "lat": 29.858773029241735}, "088": {"name": "Kottomia", "country": "Egypt", "state": "Cairo", "county": "", "city": "New Administrative Capital", "lon": 31.825, "lat": 29.931769408696727}, "089": {"name": "Mykolaiv", "country": "Ukraine", "state": "Mykolaiv Oblast", "county": "", "city": "Mykolaiv", "lon": 31.9747, "lat": 46.971602008409384}, "090": {"name": "Mainz", "country": "Germany", "state": "Rhineland-Palatinate", "county": "", "city": "Mainz", "lon": 8.25, "lat": 49.943151271248205}, "091": {"name": "Observatoire de Nurol, Aurec sur Loire", "country": "France", "state": "Auvergne-Rh\u00f4ne-Alpes", "county": "Haute-Loire", "city": "", "lon": 4.20919, "lat": 45.381381654087924}, "092": {"name": "Torun-Piwnice", "country": "Poland", "state": "Kuyavian-Pomeranian Voivodeship", "county": "Toru\u0144 County", "city": "", "lon": 18.5546, "lat": 53.096300823929674}, "093": {"name": "Skibotn", "country": "Norway", "state": "", "county": "Troms og Finnmark", "city": "", "lon": 20.3647, "lat": 69.34932902119904}, "094": {"name": "Crimea-Simeiz", "country": "Ukraine", "state": "Autonomous Republic of Crimea", "county": "\u0433\u043e\u0440\u043e\u0434\u0441\u043a\u043e\u0439 \u043e\u043a\u0440\u0443\u0433 \u042f\u043b\u0442\u0430", "city": "", "lon": 33.9974, "lat": 44.40308572321057}, "095": {"name": "Crimea-Nauchnyi", "country": "Ukraine", "state": "Autonomous Republic of Crimea", "county": "Bakhchysarai Raion", "city": "\u0433\u043e\u0440\u043e\u0434\u0441\u043a\u043e\u0435 \u043f\u043e\u0441\u0435\u043b\u0435\u043d\u0438\u0435 \u0411\u0430\u0445\u0447\u0438\u0441\u0430\u0440\u0430\u0439", "lon": 34.016, "lat": 44.72655491524162}, "096": {"name": "Merate", "country": "Italy", "state": "Lombardy", "county": "Lecco", "city": "", "lon": 9.4283, "lat": 45.69883245272825}, "097": {"name": "Wise Observatory, Mitzpeh Ramon", "country": "Israel", "state": "South District", "county": "", "city": "Mizpe Ramon", "lon": 34.7625, "lat": 30.595657042284223}, "098": {"name": "Asiago Observatory, Cima Ekar", "country": "Italy", "state": "Veneto", "county": "Vicenza", "city": "", "lon": 11.569, "lat": 45.848587872178385}, "099": {"name": "Lahti", "country": "Finland", "state": "", "county": "P\u00e4ij\u00e4t-H\u00e4me", "city": "", "lon": 25.53529, "lat": 61.13023601252442}, "100": {"name": "Ahtari", "country": "Finland", "state": "", "county": "South Ostrobothnia", "city": "", "lon": 24.14145, "lat": 62.61716076329608}, "101": {"name": "Kharkiv", "country": "Ukraine", "state": "Kharkiv Oblast", "county": "", "city": "Kharkiv", "lon": 36.2322, "lat": 50.0026990933419}, "102": {"name": "Zvenigorod", "country": "Russia", "state": "Moscow Oblast", "county": "\u041e\u0434\u0438\u043d\u0446\u043e\u0432\u0441\u043a\u0438\u0439 \u0433\u043e\u0440\u043e\u0434\u0441\u043a\u043e\u0439 \u043e\u043a\u0440\u0443\u0433", "city": "", "lon": 36.75953, "lat": 55.69951419394082}, "103": {"name": "Ljubljana", "country": "Slovenia", "state": "", "county": "", "city": "Ljubljana", "lon": 14.52774, "lat": 46.043778662602385}, "104": {"name": "San Marcello Pistoiese", "country": "Italy", "state": "Tuscany", "county": "Pistoia", "city": "", "lon": 10.80375, "lat": 44.06417772009302}, "105": {"name": "Moscow", "country": "Russia", "state": "Moscow", "county": "", "city": "Moscow", "lon": 37.5706, "lat": 55.755712834815924}, "106": {"name": "Crni Vrh", "country": "Slovenia", "state": "", "county": "", "city": "", "lon": 14.0711, "lat": 45.94590490468571}, "107": {"name": "Cavezzo", "country": "Italy", "state": "Emilia-Romagna", "county": "Modena", "city": "", "lon": 11.003, "lat": 44.862893000997154}, "108": {"name": "Montelupo", "country": "Italy", "state": "Tuscany", "county": "Florence", "city": "", "lon": 11.0278, "lat": 43.738113971751865}, "109": {"name": "Algiers-Kouba", "country": "Algeria", "state": "Algiers", "county": "Hussein Dey District", "city": "Kouba", "lon": 3.0705, "lat": 36.733064981398364}, "110": {"name": "Rostov", "country": "Russia", "state": "Yaroslavl Oblast", "county": "Rostovsky District", "city": "", "lon": 39.415, "lat": 57.189175000387095}, "111": {"name": "Piazzano Observatory, Florence", "country": "Italy", "state": "Tuscany", "county": "Florence", "city": "", "lon": 10.9721, "lat": 43.67884716997665}, "112": {"name": "Pleiade Observatory, Verona", "country": "Italy", "state": "Veneto", "county": "Verona", "city": "", "lon": 10.9039, "lat": 45.48378606712266}, "113": {"name": "Volkssternwarte Drebach, Schoenbrunn", "country": "Germany", "state": "Saxony", "county": "Erzgebirgskreis", "city": "", "lon": 13.0166, "lat": 50.676686168825974}, "114": {"name": "Engelhardt Observatory, Zelenchukskaya Station", "country": "Russia", "state": "Karachay-Cherkessia", "county": "Zelenchuksky District", "city": "", "lon": 41.4277, "lat": 43.655710488796835}, "115": {"name": "Zelenchukskaya", "country": "Russia", "state": "Karachay-Cherkessia", "county": "Zelenchuksky District", "city": "", "lon": 41.44067, "lat": 43.646710160239465}, "116": {"name": "Giesing", "country": "Germany", "state": "Bavaria", "county": "", "city": "Munich", "lon": 11.5958, "lat": 48.11521850626828}, "117": {"name": "Sendling", "country": "Germany", "state": "Bavaria", "county": "", "city": "Munich", "lon": 11.5385, "lat": 48.11274461490944}, "118": {"name": "Astronomical and Geophysical Observatory, Modra", "country": "Slovakia", "state": "Region of Bratislava", "county": "District of Pezinok", "city": "", "lon": 17.274, "lat": 48.373141149413044}, "119": {"name": "Abastuman", "country": "Georgia", "state": "Samtskhe-Javakheti", "county": "Adigeni Municipality", "city": "", "lon": 42.82, "lat": 41.753624392117416}, "120": {"name": "Visnjan", "country": "Croatia", "state": "", "county": "Istria County", "city": "", "lon": 13.7261, "lat": 45.27763383086475}, "121": {"name": "Kharkiv University, Chuguevskaya Station", "country": "Ukraine", "state": "Kharkiv Oblast", "county": "", "city": "", "lon": 36.93403, "lat": 49.64083567025459}, "122": {"name": "Pises Observatory", "country": "France", "state": "Occitania", "county": "Gard", "city": "", "lon": 3.5035, "lat": 44.03953940697458}, "123": {"name": "Byurakan", "country": "Armenia", "state": "Aragatsotn Province", "county": "", "city": "", "lon": 44.2917, "lat": 40.335207792034495}, "124": {"name": "Castres", "country": "France", "state": "Occitania", "county": "Tarn", "city": "", "lon": 2.255, "lat": 43.60049863389136}, "125": {"name": "Tbilisi", "country": "Georgia", "state": "", "county": "", "city": "Tbilisi", "lon": 44.7895, "lat": 41.7173191069217}, "126": {"name": "Monte Viseggi", "country": "Italy", "state": "Liguria", "county": "La Spezia", "city": "La Spezia", "lon": 9.7903, "lat": 44.133166537705186}, "127": {"name": "Bornheim", "country": "Germany", "state": "North Rhine-Westphalia", "county": "Rhein-Sieg-Kreis", "city": "", "lon": 6.9797, "lat": 50.76018850580351}, "128": {"name": "Saratov", "country": "Russia", "state": "Saratov Oblast", "county": "Saratov", "city": "Saratov", "lon": 46.00661, "lat": 51.53831881726582}, "129": {"name": "Ordubad", "country": "Azerbaijan", "state": "", "county": "", "city": "", "lon": 45.92, "lat": 39.1346222814358}, "130": {"name": "Lumezzane", "country": "Italy", "state": "Lombardy", "county": "Brescia", "city": "", "lon": 10.23963, "lat": 45.66501751683493}, "131": {"name": "Observatoire de l'Ardeche", "country": "France", "state": "Auvergne-Rh\u00f4ne-Alpes", "county": "Ard\u00e8che", "city": "", "lon": 4.725, "lat": 44.677033126016944}, "132": {"name": "Bedoin", "country": "France", "state": "Provence-Alpes-C\u00f4te d'Azur", "county": "Vaucluse", "city": "", "lon": 5.2461, "lat": 44.11330027119981}, "133": {"name": "Les Tardieux", "country": "France", "state": "Provence-Alpes-C\u00f4te d'Azur", "county": "Bouches-du-Rh\u00f4ne", "city": "", "lon": 5.0906, "lat": 43.36170296700522}, "134": {"name": "Groszschwabhausen", "country": "Germany", "state": "Thuringia", "county": "Landkreis Weimarer Land", "city": "", "lon": 11.48245, "lat": 50.928433905935705}, "135": {"name": "Kasan", "country": "Russia", "state": "Tatarstan", "county": "\u0433\u043e\u0440\u043e\u0434\u0441\u043a\u043e\u0439 \u043e\u043a\u0440\u0443\u0433 \u041a\u0430\u0437\u0430\u043d\u044c", "city": "Kazan", "lon": 49.121, "lat": 55.78970586103338}, "136": {"name": "Engelhardt Observatory, Kasan", "country": "Russia", "state": "Tatarstan", "county": "Zelenodolsky District", "city": "", "lon": 48.8156, "lat": 55.83912271195617}, "137": {"name": "Givatayim Observatory", "country": "Israel", "state": "Tel-Aviv District", "county": "", "city": "", "lon": 34.8147, "lat": 32.069772146098366}, "138": {"name": "Village-Neuf", "country": "France", "state": "Grand Est", "county": "Haut-Rhin", "city": "", "lon": 7.5717, "lat": 47.604860436550894}, "139": {"name": "Antibes", "country": "France", "state": "Provence-Alpes-C\u00f4te d'Azur", "county": "Maritime Alps", "city": "", "lon": 7.1108, "lat": 43.60616002687893}, "140": {"name": "Augerolles", "country": "France", "state": "Auvergne-Rh\u00f4ne-Alpes", "county": "Puy-de-D\u00f4me", "city": "", "lon": 3.6294, "lat": 45.718286722513504}, "141": {"name": "Hottviller", "country": "France", "state": "Grand Est", "county": "Moselle", "city": "", "lon": 7.3672, "lat": 49.0670142989095}, "142": {"name": "Sinsen", "country": "Germany", "state": "North Rhine-Westphalia", "county": "Kreis Recklinghausen", "city": "", "lon": 7.1874, "lat": 51.66386654020437}, "143": {"name": "Gnosca", "country": "Switzerland", "state": "Ticino", "county": "Distretto di Bellinzona", "city": "", "lon": 9.02406, "lat": 46.23141618230475}, "144": {"name": "Bray et Lu", "country": "France", "state": "Ile-de-France", "county": "Val-d'Oise", "city": "", "lon": 1.666, "lat": 49.138725993788086}, "145": {"name": "'s-Gravenwezel", "country": "Belgium", "state": "Antwerp", "county": "Antwerp", "city": "", "lon": 4.5597, "lat": 51.24002653509749}, "146": {"name": "Frignano", "country": "Italy", "state": "Emilia-Romagna", "county": "Modena", "city": "", "lon": 10.6673, "lat": 44.288324702061004}, "147": {"name": "Osservatorio Astronomico di Suno", "country": "Italy", "state": "Piedmont", "county": "Novara", "city": "", "lon": 8.57391, "lat": 45.637241596768895}, "148": {"name": "Guitalens", "country": "France", "state": "Occitania", "county": "Tarn", "city": "Guitalens-L'Albar\u00e8de", "lon": 2.0375, "lat": 43.64434434008678}, "149": {"name": "Beine-Nauroy", "country": "France", "state": "Grand Est", "county": "Marne", "city": "", "lon": 4.2236, "lat": 49.25007557692353}, "150": {"name": "Maisons Laffitte", "country": "France", "state": "Ile-de-France", "county": "Yvelines", "city": "", "lon": 2.1572, "lat": 48.94358060005524}, "151": {"name": "Eschenberg Observatory, Winterthur", "country": "Switzerland", "state": "Zurich", "county": "Bezirk Winterthur", "city": "Winterthur", "lon": 8.744, "lat": 47.476027680624846}, "152": {"name": "Moletai Astronomical Observatory", "country": "Lithuania", "state": "Utena County", "county": "\u010ciul\u0117nai eldership", "city": "", "lon": 25.5633, "lat": 55.31603900610331}, "153": {"name": "Stuttgart-Hoffeld", "country": "Germany", "state": "Baden-W\u00fcrttemberg", "county": "", "city": "Stuttgart", "lon": 9.1747, "lat": 48.73807587167723}, "154": {"name": "Cortina", "country": "Italy", "state": "Veneto", "county": "Belluno", "city": "", "lon": 12.1043, "lat": 46.54215516320929}, "155": {"name": "Ole Romer Observatory, Aarhus", "country": "Denmark", "state": "Central Denmark Region", "county": "", "city": "Aarhus", "lon": 10.1971, "lat": 56.12764405628696}, "156": {"name": "Catania Astrophysical Observatory", "country": "Italy", "state": "Sicily", "county": "Catania", "city": "Catania", "lon": 15.0858, "lat": 37.5034123031237}, "157": {"name": "Frasso Sabino", "country": "Italy", "state": "Lazio", "county": "Rieti", "city": "", "lon": 12.8117, "lat": 42.2275340114664}, "158": {"name": "Promiod", "country": "Italy", "state": "Aosta Valley", "county": "", "city": "", "lon": 7.6033, "lat": 45.78553258384603}, "159": {"name": "Monte Agliale", "country": "Italy", "state": "Tuscany", "county": "Lucca", "city": "", "lon": 10.5153, "lat": 43.995219830554554}, "160": {"name": "Castelmartini", "country": "Italy", "state": "Tuscany", "county": "Pistoia", "city": "", "lon": 10.84144, "lat": 43.823057793230305}, "161": {"name": "Cerrina Tololo Observatory", "country": "Italy", "state": "Piedmont", "county": "Alessandria", "city": "", "lon": 8.1605, "lat": 45.08771740983009}, "162": {"name": "Potenza", "country": "Italy", "state": "Basilicata", "county": "Potenza", "city": "Potenza", "lon": 15.7805, "lat": 40.65000496799447}, "163": {"name": "Roeser Observatory, Luxembourg", "country": "Luxembourg", "state": "", "county": "Canton Esch-sur-Alzette", "city": "", "lon": 6.1492, "lat": 49.543165930156626}, "164": {"name": "St. Michel sur Meurthe", "country": "France", "state": "Grand Est", "county": "Vosges", "city": "", "lon": 6.8861, "lat": 48.315555125473864}, "165": {"name": "Piera Observatory, Barcelona", "country": "Spain", "state": "Catalonia", "county": "Anoia", "city": "", "lon": 1.7553, "lat": 41.52150332876257}, "166": {"name": "Upice", "country": "Czechia", "state": "Northeast", "county": "Kr\u00e1lov\u00e9hradeck\u00fd kraj", "city": "", "lon": 16.0117, "lat": 50.50689813823977}, "167": {"name": "Bulach Observatory", "country": "Switzerland", "state": "Zurich", "county": "Bezirk B\u00fclach", "city": "", "lon": 8.5727, "lat": 47.52028592431777}, "168": {"name": "Kourovskaya", "country": "Russia", "state": "Sverdlovsk Oblast", "county": "\u0433\u043e\u0440\u043e\u0434\u0441\u043a\u043e\u0439 \u043e\u043a\u0440\u0443\u0433 \u041f\u0435\u0440\u0432\u043e\u0443\u0440\u0430\u043b\u044c\u0441\u043a", "city": "", "lon": 59.5472, "lat": 57.03680418875077}, "169": {"name": "Airali Observatory", "country": "Italy", "state": "Piedmont", "county": "Alessandria", "city": "", "lon": 8.4016, "lat": 45.07716774660392}, "170": {"name": "Observatorio de Begues", "country": "Spain", "state": "Catalonia", "county": "Baix Llobregat", "city": "", "lon": 1.9206, "lat": 41.331801890010595}, "171": {"name": "Flarestar Observatory, San Gwann", "country": "Malta", "state": "Central Region", "county": "", "city": "", "lon": 14.4697, "lat": 35.90993916377478}, "172": {"name": "Onnens", "country": "Switzerland", "state": "Fribourg", "county": "Sarine District", "city": "Prez", "lon": 7.0364, "lat": 46.793615978872985}, "173": {"name": "St. Clotilde, Reunion", "country": "France", "state": "R\u00e9union", "county": "", "city": "", "lon": 55.5061, "lat": -20.897570033818745}, "174": {"name": "Nyrola Observatory, Jyvaskyla", "country": "Finland", "state": "", "county": "Central Finland", "city": "Jyv\u00e4skyl\u00e4", "lon": 25.5131, "lat": 62.34662115218743}, "175": {"name": "F.-X. Bagnoud Observatory, St-Luc", "country": "Switzerland", "state": "Wallis", "county": "Sierre", "city": "Anniviers", "lon": 7.6083, "lat": 46.23088439542678}, "176": {"name": "Observatorio Astronomico de Consell", "country": "Spain", "state": "Balearic Islands", "county": "Raiguer", "city": "", "lon": 2.8225, "lat": 39.65368376845291}, "177": {"name": "Le Cres", "country": "France", "state": "Occitania", "county": "H\u00e9rault", "city": "", "lon": 3.9414, "lat": 43.64675997581802}, "178": {"name": "Collonges", "country": "France", "state": "Auvergne-Rh\u00f4ne-Alpes", "county": "Upper Savoy", "city": "", "lon": 6.1344, "lat": 46.13462651855193}, "179": {"name": "Monte Generoso", "country": "Switzerland", "state": "Ticino", "county": "Distretto di Lugano", "city": "Val Mara", "lon": 9.0175, "lat": 45.92792439872685}, "180": {"name": "Mauguio", "country": "France", "state": "Occitania", "county": "H\u00e9rault", "city": "", "lon": 3.9519, "lat": 43.5683904760254}, "181": {"name": "Observatoire des Makes, Saint-Louis", "country": "France", "state": "R\u00e9union", "county": "", "city": "", "lon": 55.41, "lat": -21.199549317185937}, "182": {"name": "St. Paul, Reunion", "country": "France", "state": "R\u00e9union", "county": "", "city": "", "lon": 55.2586, "lat": -21.01259003594676}, "183": {"name": "Starlab Observatory, Karachay-Cherkessia", "country": "Russia", "state": "Karachay-Cherkessia", "county": "Zelenchuksky District", "city": "", "lon": 41.42, "lat": 43.65003097357314}, "184": {"name": "Valmeca Observatory, Puimichel", "country": "France", "state": "Provence-Alpes-C\u00f4te d'Azur", "county": "Alpes-de-Haute-Provence", "city": "", "lon": 6.0361, "lat": 43.9814087050476}, "185": {"name": "Observatoire Astronomique Jurassien-Vicques", "country": "Switzerland", "state": "Jura", "county": "District de Del\u00e9mont", "city": "Val Terbi", "lon": 7.4219, "lat": 47.3530454678396}, "186": {"name": "Kitab", "country": "Uzbekistan", "state": "Qashqadaryo Region", "county": "Kitob District", "city": "", "lon": 66.8821, "lat": 39.13377001991897}, "187": {"name": "Astronomical Observatory, Borowiec", "country": "Poland", "state": "Greater Poland Voivodeship", "county": "Pozna\u0144 County", "city": "", "lon": 17.0733, "lat": 52.27712601880997}, "188": {"name": "Majdanak", "country": "Uzbekistan", "state": "Qashqadaryo Region", "county": "", "city": "", "lon": 66.89555, "lat": 38.673362003338916}, "189": {"name": "Geneva (before 1967)", "country": "Switzerland", "state": "Geneva", "county": "", "city": "Geneva", "lon": 6.1514, "lat": 46.19997418975132}, "190": {"name": "Gissar", "country": "Tajikistan", "state": "Districts of Republican Subordination", "county": "Rudaki District", "city": "", "lon": 68.6819, "lat": 38.49029661670091}, "191": {"name": "Dushanbe", "country": "Tajikistan", "state": "", "county": "", "city": "Dushanbe", "lon": 68.7811, "lat": 38.56108922420051}, "192": {"name": "Tashkent", "country": "Uzbekistan", "state": "", "county": "Yunusabad district", "city": "Tashkent", "lon": 69.2936, "lat": 41.32512599675987}, "193": {"name": "Sanglok", "country": "Tajikistan", "state": "Khatlon Region", "county": "Danghara District", "city": "", "lon": 69.2178, "lat": 38.260778213471056}, "194": {"name": "Tivoli", "country": "Namibia", "state": "Khomas", "county": "", "city": "", "lon": 18.0094, "lat": -23.4615943639136}, "195": {"name": "Untermenzing Observatory, Munich", "country": "Germany", "state": "Bavaria", "county": "", "city": "Munich", "lon": 11.4492, "lat": 48.18385680023157}, "196": {"name": "Homburg-Erbach", "country": "Germany", "state": "Saarland", "county": "Saarpfalz-Kreis", "city": "", "lon": 7.3331, "lat": 49.331749085399395}, "197": {"name": "Bastia", "country": "Italy", "state": "Emilia-Romagna", "county": "Ravenna", "city": "Ravenna", "lon": 12.1836, "lat": 44.25692835099993}, "198": {"name": "Wildberg", "country": "Germany", "state": "Baden-W\u00fcrttemberg", "county": "Landkreis Calw", "city": "", "lon": 8.75674, "lat": 48.631943282527416}, "199": {"name": "Telescope Jean-Marc Salomon, Buthiers", "country": "France", "state": "Ile-de-France", "county": "Seine-et-Marne", "city": "", "lon": 2.438, "lat": 48.29173591795487}, "200": {"name": "Beersel Hills Observatory", "country": "Belgium", "state": "Flemish Brabant", "county": "Halle-Vilvoorde", "city": "", "lon": 4.3036, "lat": 50.76018850580351}, "201": {"name": "Jonathan B. Postel Observatory", "country": "Italy", "state": "Aosta Valley", "county": "", "city": "", "lon": 7.6033, "lat": 45.78513250439509}, "202": {"name": "Tamaris Observatoire, La Seyne sur Mer", "country": "France", "state": "Provence-Alpes-C\u00f4te d'Azur", "county": "Var", "city": "", "lon": 5.8997, "lat": 43.09527642153481}, "203": {"name": "GiaGa Observatory", "country": "Italy", "state": "Lombardy", "county": "Milan", "city": "", "lon": 8.99548, "lat": 45.54144177870509}, "204": {"name": "Schiaparelli Observatory", "country": "Italy", "state": "Lombardy", "county": "Varese", "city": "", "lon": 8.76972, "lat": 45.86829218386113}, "205": {"name": "Obs. Casalecchio di Reno, Bologna", "country": "Italy", "state": "Emilia-Romagna", "county": "Bologna", "city": "", "lon": 11.2731, "lat": 44.47206120930523}, "206": {"name": "Haagaar Observatory, Eina", "country": "Norway", "state": "", "county": "Innlandet", "city": "", "lon": 10.5667, "lat": 60.60092250335202}, "207": {"name": "Osservatorio Antonio Grosso", "country": "Italy", "state": "Lombardy", "county": "Monza and Brianza", "city": "", "lon": 9.3065, "lat": 45.54506034092043}, "208": {"name": "Rivalta", "country": "Italy", "state": "Emilia-Romagna", "county": "Piacenza", "city": "", "lon": 9.5875, "lat": 44.94933662833382}, "209": {"name": "Asiago Observatory, Cima Ekar-ADAS", "country": "Italy", "state": "Veneto", "county": "Vicenza", "city": "", "lon": 11.56883, "lat": 45.849481462558096}, "210": {"name": "Alma-Ata", "country": "Kazakhstan", "state": "", "county": "", "city": "Almaty", "lon": 76.9573, "lat": 43.18827560355073}, "211": {"name": "Scandicci", "country": "Italy", "state": "Tuscany", "county": "Florence", "city": "", "lon": 11.1764, "lat": 43.762480643739146}, "212": {"name": "Observatorio La Dehesilla", "country": "Spain", "state": "Andalusia", "county": "Valle del Guadalhorce", "city": "", "lon": 355.35747, "lat": 36.65332904516242}, "213": {"name": "Observatorio Montcabre", "country": "Spain", "state": "Catalonia", "county": "Maresme", "city": "", "lon": 2.38539, "lat": 41.51971228916129}, "214": {"name": "Garching Observatory", "country": "Germany", "state": "Bavaria", "county": "Landkreis M\u00fcnchen", "city": "", "lon": 11.6569, "lat": 48.25658901387573}, "215": {"name": "Buchloe", "country": "Germany", "state": "Bavaria", "county": "Landkreis Ostallg\u00e4u", "city": "", "lon": 10.7328, "lat": 48.0172899193553}, "216": {"name": "Observatoire des Cote de Meuse", "country": "France", "state": "Grand Est", "county": "Meuse", "city": "", "lon": 5.6914, "lat": 49.0015731454498}, "217": {"name": "Assah", "country": "Kazakhstan", "state": "Almaty Region", "county": "Enbekshikazakh District", "city": "", "lon": 77.87114, "lat": 43.225524053894254}, "218": {"name": "Hyderabad", "country": "India", "state": "Telangana", "county": "Khairatabad mandal", "city": "Hyderabad", "lon": 78.4541, "lat": 17.431845201520193}, "219": {"name": "Japal-Rangapur", "country": "India", "state": "Telangana", "county": "Manchal mandal", "city": "", "lon": 78.7283, "lat": 17.0983261811398}, "220": {"name": "Vainu Bappu Observatory, Kavalur", "country": "India", "state": "Tamil Nadu", "county": "Tirupathur", "city": "", "lon": 78.8263, "lat": 12.576279076146811}, "221": {"name": "IAS Observatory, Hakos", "country": "Namibia", "state": "Khomas", "county": "", "city": "", "lon": 16.3617, "lat": -23.236367105830258}, "222": {"name": "Yerres-Canotiers", "country": "France", "state": "Ile-de-France", "county": "Essonne", "city": "", "lon": 2.4939, "lat": 48.70985301349219}, "223": {"name": "Madras", "country": "India", "state": "Tamil Nadu", "county": "", "city": "Chennai", "lon": 80.2464, "lat": 13.068994193745775}, "224": {"name": "Ottmarsheim", "country": "France", "state": "Grand Est", "county": "Haut-Rhin", "city": "", "lon": 7.50171, "lat": 47.78475947118012}, "225": {"name": "Northwood Ridge Observatory", "country": "United States", "state": "New Hampshire", "county": "Rockingham County", "city": "", "lon": 288.825, "lat": 43.22770471284131}, "226": {"name": "Guido Ruggieri Observatory, Padua", "country": "Italy", "state": "Veneto", "county": "Province of Padua", "city": "Padua", "lon": 11.8858, "lat": 45.4338788155284}, "227": {"name": "OrbitJet Observatory, Colden", "country": "United States", "state": "New York", "county": "Erie County", "city": "", "lon": 281.2853, "lat": 42.63838622960632}, "228": {"name": "Bruno Zugna Observatory, Trieste", "country": "Italy", "state": "Friuli-Venezia Giulia", "county": "Trieste", "city": "Triest", "lon": 13.875, "lat": 45.64242229126361}, "229": {"name": "G. C. Gloriosi Astronomical Observatory, Salerno", "country": "Italy", "state": "Campania", "county": "Salerno", "city": "", "lon": 14.9743, "lat": 40.69081182220764}, "230": {"name": "Mt. Wendelstein Observatory", "country": "Germany", "state": "Bavaria", "county": "Landkreis Rosenheim", "city": "", "lon": 12.0133, "lat": 47.70403482583804}, "231": {"name": "Vesqueville", "country": "Belgium", "state": "Luxembourg", "county": "Neufch\u00e2teau", "city": "", "lon": 5.3983, "lat": 50.005278886544936}, "232": {"name": "Masquefa Observatory", "country": "Spain", "state": "Catalonia", "county": "Conca de Barber\u00e0", "city": "", "lon": 1.3317, "lat": 41.50853356382641}, "233": {"name": "Sauro Donati Astronomical Observatory, San Vito", "country": "Italy", "state": "Tuscany", "county": "Lucca", "city": "Lucca", "lon": 10.5403, "lat": 43.85504155728961}, "234": {"name": "Coddenham Observatory", "country": "United Kingdom", "state": "England", "county": "Suffolk", "city": "Mid Suffolk", "lon": 1.12833, "lat": 52.1452512842712}, "235": {"name": "CAST Observatory, Talmassons", "country": "Italy", "state": "Friuli-Venezia Giulia", "county": "Udine", "city": "", "lon": 13.11352, "lat": 45.93602375688391}, "236": {"name": "Tomsk", "country": "Russia", "state": "Tomsk Oblast", "county": "\u0433\u043e\u0440\u043e\u0434\u0441\u043a\u043e\u0439 \u043e\u043a\u0440\u0443\u0433 \u0422\u043e\u043c\u0441\u043a", "city": "Tomsk", "lon": 84.9465, "lat": 56.46825751153141}, "237": {"name": "Baugy", "country": "France", "state": "Centre-Val de Loire", "county": "Cher", "city": "", "lon": 2.7333, "lat": 47.083524924835224}, "238": {"name": "Grorudalen Optical Observatory", "country": "Norway", "state": "", "county": "", "city": "Oslo", "lon": 10.9094, "lat": 59.94914530446521}, "239": {"name": "Trebur", "country": "Germany", "state": "Hesse", "county": "Kreis Gro\u00df-Gerau", "city": "", "lon": 8.4114, "lat": 49.925387894455014}, "240": {"name": "Herrenberg Sternwarte", "country": "Germany", "state": "Baden-W\u00fcrttemberg", "county": "Landkreis B\u00f6blingen", "city": "", "lon": 8.83317, "lat": 48.623592579224386}, "241": {"name": "Schaerding", "country": "Austria", "state": "", "county": "Bezirk Sch\u00e4rding", "city": "", "lon": 13.47, "lat": 48.44349112142043}, "242": {"name": "Varennes", "country": "France", "state": "Occitania", "county": "Haute-Garonne", "city": "", "lon": 1.6956, "lat": 43.47911723584425}, "243": {"name": "Umbrella Observatory, Fredenbeck", "country": "Germany", "state": "Lower Saxony", "county": "Stade", "city": "", "lon": 9.413, "lat": 53.528075781959174}, "244": {"name": "Geocentric Occultation Observation", "country": "", "state": "", "county": "", "city": "", "lon": 0.0, "lat": 90.0}, "245": {"name": "Spitzer"}, "246": {"name": "Klet Observatory-KLENOT", "country": "Czechia", "state": "Southwest", "county": "Jiho\u010desk\u00fd kraj", "city": "", "lon": 14.28476, "lat": 48.86399135501812}, "247": {"name": "Roving"}, "248": {"name": "Hipparcos", "country": "", "state": "", "county": "", "city": "", "lon": 0.0, "lat": 90.0}, "249": {"name": "SOHO"}, "250": {"name": "Hubble"}, "251": {"name": "Arecibo", "country": "United States", "state": "Puerto Rico", "county": "", "city": "Arecibo", "lon": 293.24692, "lat": 18.343442679753668}, "252": {"name": "Goldstone DSS 13, Fort Irwin", "country": "United States", "state": "California", "county": "San Bernardino County", "city": "", "lon": 243.20512, "lat": 35.24719727305703}, "253": {"name": "Goldstone DSS 14, Fort Irwin", "country": "United States", "state": "California", "county": "San Bernardino County", "city": "", "lon": 243.11047, "lat": 35.42591413119202}, "254": {"name": "Haystack, Westford", "country": "United States", "state": "Massachusetts", "county": "Middlesex County", "city": "", "lon": 288.51128, "lat": 42.62319475751631}, "255": {"name": "Yevpatoriya", "country": "Ukraine", "state": "Republic of Crimea", "county": "Saky Raion", "city": "\u041c\u043e\u043b\u043e\u0447\u043d\u0435\u043d\u0441\u043a\u043e\u0435 \u0441\u0435\u043b\u044c\u0441\u043a\u043e\u0435 \u043f\u043e\u0441\u0435\u043b\u0435\u043d\u0438\u0435", "lon": 33.18689, "lat": 45.18921540765549}, "256": {"name": "Green Bank", "country": "United States", "state": "West Virginia", "county": "Pocahontas County", "city": "", "lon": 280.16017, "lat": 38.433109641975626}, "257": {"name": "Goldstone DSS 25, Fort Irwin", "country": "United States", "state": "California", "county": "San Bernardino County", "city": "", "lon": 243.12461, "lat": 35.337572516828914}, "258": {"name": "Gaia"}, "259": {"name": "EISCAT Tromso UHF", "country": "Norway", "state": "", "county": "Troms og Finnmark", "city": "Troms\u00f8", "lon": 19.22586, "lat": 69.58648637517695}, "260": {"name": "Siding Spring Observatory-DSS", "country": "Australia", "state": "New South Wales", "county": "", "city": "", "lon": 149.0661, "lat": -31.276806404194346}, "261": {"name": "Palomar Mountain-DSS", "country": "United States", "state": "California", "county": "San Diego County", "city": "", "lon": 243.14022, "lat": 33.357337666796056}, "262": {"name": "European Southern Observatory, La Silla-DSS", "country": "Chile", "state": "Coquimbo Region", "county": "Provincia de Elqui", "city": "", "lon": 289.26626, "lat": -29.258819574661104}, "266": {"name": "New Horizons KBO Search-Subaru", "country": "United States", "state": "Hawaii", "county": "Hawai\u02bbi County", "city": "", "lon": 204.52344, "lat": 19.82558582145686}, "267": {"name": "New Horizons KBO Search-CFHT", "country": "United States", "state": "Hawaii", "county": "Hawai\u02bbi County", "city": "", "lon": 204.53044, "lat": 19.825345214758475}, "268": {"name": "New Horizons KBO Search-Magellan/Clay", "country": "Chile", "state": "Atacama Region", "county": "Provincia de Huasco", "city": "Vallenar", "lon": 289.30803, "lat": -29.01426904716573}, "269": {"name": "New Horizons KBO Search-Magellan/Baade", "country": "Chile", "state": "Atacama Region", "county": "Provincia de Huasco", "city": "Vallenar", "lon": 289.30914, "lat": -29.01478858579265}, "270": {"name": "Unistellar"}, "273": {"name": "Euclid"}, "274": {"name": "James"}, "275": {"name": "Non"}, "276": {"name": "Plonsk", "country": "Poland", "state": "Masovian Voivodeship", "county": "P\u0142o\u0144sk County", "city": "", "lon": 20.38279, "lat": 52.627451043436935}, "277": {"name": "Royal Observatory, Blackford Hill, Edinburgh", "country": "United Kingdom", "state": "Scotland", "county": "", "city": "City of Edinburgh", "lon": 356.8175, "lat": 55.924919309104666}, "278": {"name": "Peking, Transit of Venus site", "country": "China", "state": "Beijing", "county": "", "city": "Chaoyang District", "lon": 116.4494, "lat": 39.90404804404085}, "279": {"name": "Seeberg Observatory, Gotha (1787-1857)", "country": "Germany", "state": "Thuringia", "county": "Landkreis Gotha", "city": "", "lon": 10.72822, "lat": 50.933990368587814}, "280": {"name": "Lilienthal", "country": "Germany", "state": "Lower Saxony", "county": "Landkreis Osterholz", "city": "", "lon": 8.9118, "lat": 53.14065964959348}, "281": {"name": "Bologna", "country": "Italy", "state": "Emilia-Romagna", "county": "Bologna", "city": "Bologna", "lon": 11.3522, "lat": 44.496411643782494}, "282": {"name": "Nimes", "country": "France", "state": "Occitania", "county": "Gard", "city": "Nimes", "lon": 4.3603, "lat": 43.839620259169465}, "283": {"name": "Bremen", "country": "Germany", "state": "Free Hanseatic City of Bremen", "county": "", "city": "Stadtgebiet Bremen", "lon": 8.8163, "lat": 53.07635578017964}, "284": {"name": "Driesen", "country": "Poland", "state": "Lubusz Voivodeship", "county": "Strzelce-Drezdenko County", "city": "", "lon": 15.8311, "lat": 52.838162006885405}, "285": {"name": "Flammarion Observatory, Juvisy", "country": "France", "state": "Ile-de-France", "county": "Essonne", "city": "", "lon": 2.3708, "lat": 48.69355984661608}, "286": {"name": "Yunnan Observatory", "country": "China", "state": "Yunnan", "county": "", "city": "Kunming", "lon": 102.7883, "lat": 25.02544704197281}, "290": {"name": "Mt. Graham-VATT", "country": "United States", "state": "Arizona", "county": "Graham County", "city": "", "lon": 250.10799, "lat": 32.701292628687725}, "291": {"name": "LPL/Spacewatch II", "country": "United States", "state": "Arizona", "county": "Pima County", "city": "", "lon": 248.40024, "lat": 31.961595028972138}, "292": {"name": "Burlington, New Jersey", "country": "United States", "state": "New Jersey", "county": "Burlington County", "city": "", "lon": 285.1058, "lat": 40.07203274230665}, "293": {"name": "Burlington remote site", "country": "United States", "state": "New Jersey", "county": "Burlington County", "city": "", "lon": 285.5899, "lat": 39.79843064427577}, "294": {"name": "Astrophysical Obs., College of Staten Island", "country": "United States", "state": "New York", "county": "", "city": "New York", "lon": 285.8467, "lat": 40.60384788179822}, "295": {"name": "Catholic University Observatory, Washington", "country": "United States", "state": "District of Columbia", "county": "", "city": "Washington", "lon": 283.0, "lat": 38.93649837844209}, "296": {"name": "Dudley Observatory, Albany (after 1893)", "country": "United States", "state": "New York", "county": "Albany County", "city": "City of Albany", "lon": 286.22, "lat": 42.65366698760651}, "297": {"name": "Middlebury", "country": "United States", "state": "Vermont", "county": "Addison County", "city": "", "lon": 286.819, "lat": 44.01536975598242}, "298": {"name": "Van Vleck Observatory", "country": "United States", "state": "Connecticut", "county": "Lower Connecticut River Valley Planning Region", "city": "", "lon": 287.3408, "lat": 41.555169579764375}, "299": {"name": "Bosscha Observatory, Lembang", "country": "Indonesia", "state": "West Java", "county": "West Bandung", "city": "", "lon": 107.616, "lat": -6.825508791632474}, "300": {"name": "Bisei Spaceguard Center-BATTeRS", "country": "Japan", "state": "", "county": "", "city": "Ibara", "lon": 133.54444, "lat": 34.67195719026407}, "301": {"name": "Mont Megantic", "country": "Canada", "state": "Quebec", "county": "Le Haut-Saint-Fran\u00e7ois", "city": "", "lon": 288.8467, "lat": 45.4549020805838}, "302": {"name": "University of the Andes station", "country": "Venezuela", "state": "", "county": "Municipio Libertador", "city": "", "lon": 288.88, "lat": 8.672754284635722}, "303": {"name": "OAN de Llano del Hato, Merida", "country": "Venezuela", "state": "", "county": "Municipio Rangel", "city": "", "lon": 289.1296, "lat": 8.787721061763408}, "304": {"name": "Las Campanas Observatory", "country": "Chile", "state": "Atacama Region", "county": "Provincia de Huasco", "city": "Vallenar", "lon": 289.298, "lat": -29.003551766715514}, "305": {"name": "Purple Mountain, Hainan Island station", "country": "China", "state": "Shaanxi", "county": "", "city": "Pucheng County", "lon": 109.5514, "lat": 34.94545242329492}, "306": {"name": "Observatorio Taya Beixo, Barquisimeto", "country": "Venezuela", "state": "Lara State", "county": "Municipio Iribarren", "city": "Barquisimeto", "lon": 290.6769, "lat": 10.075581769673944}, "307": {"name": "Shattuck Observatory, Hanover", "country": "United States", "state": "New Hampshire", "county": "Grafton County", "city": "", "lon": 287.7166, "lat": 43.70404413120151}, "309": {"name": "Cerro Paranal", "country": "Chile", "state": "Antofagasta Region", "county": "Provincia de Antofagasta", "city": "Antofagasta", "lon": 289.59569, "lat": -24.62720957715157}, "310": {"name": "Minor Planet Center Test Code", "country": "United States", "state": "Massachusetts", "county": "Middlesex County", "city": "Cambridge", "lon": 288.87164, "lat": 42.38146501281161}, "312": {"name": "Tsingtao field station, Xisha Islands", "country": "China", "state": "Hainan Province", "county": "", "city": "Xisha District", "lon": 112.334, "lat": 16.831964525226496}, "318": {"name": "Quinns Rock", "country": "Australia", "state": "Western Australia", "county": "", "city": "", "lon": 115.691, "lat": -31.64998205293103}, "319": {"name": "Perth Observatory, Perth-Lowell Telescope", "country": "Australia", "state": "Western Australia", "county": "", "city": "", "lon": 116.135, "lat": -32.007948907824684}, "320": {"name": "Chiro Observatory", "country": "Australia", "state": "Western Australia", "county": "", "city": "", "lon": 116.4381, "lat": -30.929881866067404}, "321": {"name": "Craigie", "country": "Australia", "state": "Western Australia", "county": "", "city": "Joondalup", "lon": 115.7571, "lat": -31.79046601892124}, "322": {"name": "Perth Observatory, Bickley-MCT", "country": "Australia", "state": "Western Australia", "county": "", "city": "", "lon": 116.134, "lat": -32.0087414791385}, "323": {"name": "Perth Observatory, Bickley", "country": "Australia", "state": "Western Australia", "county": "", "city": "", "lon": 116.135, "lat": -32.0087414791385}, "324": {"name": "Peking Observatory, Shaho Station", "country": "China", "state": "Beijing", "county": "", "city": "Changping District", "lon": 116.3277, "lat": 40.101008649405564}, "327": {"name": "Peking Observatory, Xinglong Station", "country": "China", "state": "Hebei", "county": "", "city": "Chengde", "lon": 117.575, "lat": 40.39423604714689}, "330": {"name": "Purple Mountain Observatory, Nanking", "country": "China", "state": "Jiangsu", "county": "", "city": "Xuanwu District", "lon": 118.8209, "lat": 32.06665971833258}, "333": {"name": "Desert Eagle Observatory", "country": "United States", "state": "Arizona", "county": "Pima County", "city": "", "lon": 249.5236, "lat": 31.96253458510425}, "334": {"name": "Tsingtao", "country": "China", "state": "Shandong", "county": "", "city": "Shinan District", "lon": 120.3196, "lat": 36.06998106870413}, "337": {"name": "Sheshan, formerly Zo-Se", "country": "China", "state": "Shanghai", "county": "", "city": "Songjiang District", "lon": 121.1843, "lat": 31.095923967601536}, "340": {"name": "Toyonaka", "country": "Japan", "state": "Osaka Prefecture", "county": "", "city": "Toyonaka", "lon": 135.4853, "lat": 34.806931024524935}, "341": {"name": "Akashina", "country": "Japan", "state": "", "county": "", "city": "Matsumoto", "lon": 137.9486, "lat": 36.32895310057188}, "342": {"name": "Shishikui", "country": "Japan", "state": "", "county": "Kaifu County", "city": "", "lon": 134.3189, "lat": 33.551338955939435}, "343": {"name": "Younchun", "country": "South Korea", "state": "", "county": "Yeoncheon-gun", "city": "", "lon": 127.1258, "lat": 38.20007537452725}, "344": {"name": "Bohyunsan Optical Astronomy Observatory", "country": "South Korea", "state": "", "county": "Cheongsong-gun", "city": "Yeongcheon-si", "lon": 128.9767, "lat": 36.16483244143107}, "345": {"name": "Sobaeksan Optical Astronomy Observatory", "country": "South Korea", "state": "", "county": "Danyang-gun", "city": "", "lon": 128.4575, "lat": 36.934551684945106}, "346": {"name": "KNUE Astronomical Observatory", "country": "South Korea", "state": "", "county": "", "city": "Sejong", "lon": 127.3854, "lat": 36.50787379325547}, "347": {"name": "Utsunomiya-Imaizumi", "country": "Japan", "state": "", "county": "", "city": "Utsunomiya", "lon": 139.9086, "lat": 36.56339849497208}, "348": {"name": "Ayabe", "country": "Japan", "state": "", "county": "", "city": "Ayabe", "lon": 135.2669, "lat": 35.3079125353454}, "349": {"name": "Ageo", "country": "Japan", "state": "", "county": "", "city": "Ageo", "lon": 139.56622, "lat": 35.95646765919184}, "350": {"name": "Kurohone", "country": "Japan", "state": "", "county": "", "city": "Kiryu", "lon": 139.2635, "lat": 36.48190907812995}, "351": {"name": "Sakamoto", "country": "Japan", "state": "", "county": "", "city": "Otsu", "lon": 135.8678, "lat": 35.06832819391438}, "352": {"name": "Konan", "country": "Japan", "state": "", "county": "", "city": "Koka", "lon": 136.1778, "lat": 34.94709892867213}, "353": {"name": "Nishi Kobe", "country": "Japan", "state": "", "county": "", "city": "Kobe", "lon": 135.0648, "lat": 34.741370486120815}, "354": {"name": "Kawachi", "country": "Japan", "state": "", "county": "", "city": "Ohtawara", "lon": 140.0206, "lat": 36.867322077421136}, "355": {"name": "Hadano", "country": "Japan", "state": "", "county": "", "city": "Hadano", "lon": 139.2133, "lat": 35.38844258432068}, "356": {"name": "Kogota", "country": "Japan", "state": "", "county": "Toda County", "city": "", "lon": 141.0867, "lat": 38.540259030136355}, "357": {"name": "Shimotsuma", "country": "Japan", "state": "", "county": "", "city": "Shimotsuma", "lon": 140.0064, "lat": 36.18425390315884}, "358": {"name": "Nanyo", "country": "Japan", "state": "", "county": "", "city": "Nanyo", "lon": 140.1586, "lat": 38.04510331088553}, "359": {"name": "Wakayama", "country": "Japan", "state": "", "county": "", "city": "Wakayama", "lon": 135.1719, "lat": 34.21430934771723}, "360": {"name": "Kuma Kogen", "country": "Japan", "state": "", "county": "Kamiukena County", "city": "", "lon": 132.9442, "lat": 33.67430554043532}, "361": {"name": "Sumoto", "country": "Japan", "state": "", "county": "", "city": "Sumoto", "lon": 134.8933, "lat": 34.349551966887866}, "362": {"name": "Ray Observatory", "country": "Japan", "state": "", "county": "Abuta County", "city": "", "lon": 140.655, "lat": 42.64480944897501}, "363": {"name": "Yamada", "country": "Japan", "state": "", "county": "", "city": "Kama", "lon": 130.7703, "lat": 33.55995026480757}, "364": {"name": "YCPM Kagoshima Station", "country": "Japan", "state": "", "county": "", "city": "Kagoshima", "lon": 130.5747, "lat": 31.644931332464306}, "365": {"name": "Uto Observatory", "country": "Japan", "state": "", "county": "Yoshino County", "city": "", "lon": 135.9579, "lat": 34.40914075965151}, "366": {"name": "Miyasaka Observatory", "country": "Japan", "state": "", "county": "", "city": "Hokuto", "lon": 138.3003, "lat": 35.86245662271296}, "367": {"name": "Yatsuka", "country": "Japan", "state": "", "county": "", "city": "Matsue", "lon": 133.167, "lat": 35.49997470478526}, "368": {"name": "Ochiai", "country": "Japan", "state": "", "county": "", "city": "Koshu", "lon": 138.8117, "lat": 35.804838026658174}, "369": {"name": "Chichibu", "country": "Japan", "state": "", "county": "Chichibu County", "city": "", "lon": 139.15, "lat": 35.9891796752419}, "370": {"name": "Kochi", "country": "Japan", "state": "", "county": "", "city": "Kochi", "lon": 133.5273, "lat": 33.552136016262125}, "371": {"name": "Tokyo-Okayama", "country": "Japan", "state": "", "county": "", "city": "Asakuchi", "lon": 133.5965, "lat": 34.57389117471452}, "372": {"name": "Geisei", "country": "Japan", "state": "", "county": "Aki County", "city": "", "lon": 133.8276, "lat": 33.52662043560087}, "373": {"name": "Oishi", "country": "Japan", "state": "", "county": "Kaiso County", "city": "", "lon": 135.3397, "lat": 34.132474684100465}, "374": {"name": "Minami-Oda Observatory", "country": "Japan", "state": "", "county": "Kanzaki County", "city": "", "lon": 134.7196, "lat": 35.09460563654854}, "375": {"name": "Uzurano", "country": "Japan", "state": "", "county": "", "city": "Kasai", "lon": 134.8708, "lat": 34.95072677369236}, "376": {"name": "Uenohara", "country": "Japan", "state": "", "county": "", "city": "Uenohara", "lon": 139.0392, "lat": 35.68974237027904}, "377": {"name": "Kwasan Observatory, Kyoto", "country": "Japan", "state": "", "county": "", "city": "Kyoto", "lon": 135.7933, "lat": 34.994620318787526}, "378": {"name": "Murou", "country": "Japan", "state": "", "county": "", "city": "Uda", "lon": 136.0142, "lat": 34.570219244917006}, "379": {"name": "Hamamatsu-Yuto", "country": "Japan", "state": "", "county": "", "city": "Hamamatsu", "lon": 137.6279, "lat": 34.7034457360065}, "380": {"name": "Ishiki", "country": "Japan", "state": "", "county": "", "city": "Nishio", "lon": 137.0349, "lat": 34.8146053018909}, "381": {"name": "Tokyo-Kiso", "country": "Japan", "state": "", "county": "Kiso County", "city": "", "lon": 137.62542, "lat": 35.797226503495516}, "382": {"name": "Tokyo-Norikura", "country": "Japan", "state": "", "county": "", "city": "Matsumoto", "lon": 137.5553, "lat": 36.11376758467901}, "383": {"name": "Chirorin", "country": "Japan", "state": "", "county": "Kita-Azumi County", "city": "", "lon": 137.8959, "lat": 36.76169602792895}, "384": {"name": "Shimada", "country": "Japan", "state": "", "county": "", "city": "Shimada", "lon": 138.1792, "lat": 34.818381304193444}, "385": {"name": "Nihondaira Observatory", "country": "Japan", "state": "", "county": "", "city": "Shizuoka", "lon": 138.468, "lat": 34.970365469419946}, "386": {"name": "Yatsugatake-Kobuchizawa", "country": "Japan", "state": "", "county": "", "city": "Hokuto", "lon": 138.3217, "lat": 35.890773489052314}, "387": {"name": "Tokyo-Dodaira", "country": "Japan", "state": "", "county": "Hiki County", "city": "", "lon": 139.1944, "lat": 36.00604322413521}, "388": {"name": "Tokyo-Mitaka", "country": "Japan", "state": "", "county": "", "city": "Chofu", "lon": 139.5421, "lat": 35.67225078135348}, "389": {"name": "Tokyo (before 1938)", "country": "Japan", "state": "", "county": "", "city": "Minato", "lon": 139.7447, "lat": 35.65441017491447}, "390": {"name": "Utsunomiya", "country": "Japan", "state": "", "county": "", "city": "Utsunomiya", "lon": 139.8725, "lat": 36.55604301582171}, "391": {"name": "Sendai Observatory, Ayashi Station", "country": "Japan", "state": "", "county": "", "city": "Sendai", "lon": 140.77843, "lat": 38.265242889907476}, "392": {"name": "JCPM Sapporo Station", "country": "Japan", "state": "", "county": "", "city": "Sapporo", "lon": 141.3667, "lat": 42.91334718313669}, "393": {"name": "JCPM Sakura Station", "country": "Japan", "state": "", "county": "", "city": "Tsukuba", "lon": 140.1292, "lat": 36.09145172490457}, "394": {"name": "JCPM Hamatonbetsu Station", "country": "Japan", "state": "", "county": "Esashi County", "city": "", "lon": 142.3208, "lat": 45.111664950947414}, "395": {"name": "Tokyo-Asahikawa", "country": "Japan", "state": "", "county": "Kamikawa County", "city": "", "lon": 142.3583, "lat": 43.84078024292395}, "396": {"name": "Asahikawa", "country": "Japan", "state": "", "county": "", "city": "Asahikawa", "lon": 142.4208, "lat": 43.74338068706184}, "397": {"name": "Sapporo Science Center", "country": "Japan", "state": "", "county": "", "city": "Sapporo", "lon": 141.4761, "lat": 43.033523194080786}, "398": {"name": "Nagatoro", "country": "Japan", "state": "", "county": "Chichibu County", "city": "", "lon": 139.108, "lat": 36.1248334154184}, "399": {"name": "Kushiro", "country": "Japan", "state": "", "county": "Kawakami County", "city": "", "lon": 144.59, "lat": 43.07823574340721}, "400": {"name": "Kitami", "country": "Japan", "state": "", "county": "Tokoro County", "city": "", "lon": 143.7827, "lat": 43.75844007759071}, "401": {"name": "Oosato", "country": "Japan", "state": "", "county": "", "city": "Kumagaya", "lon": 139.4208, "lat": 36.112158723011284}, "402": {"name": "Dynic Astronomical Observatory", "country": "Japan", "state": "", "county": "Inukami County", "city": "", "lon": 136.3078, "lat": 35.208344370773126}, "403": {"name": "Kani", "country": "Japan", "state": "", "county": "", "city": "Kani", "lon": 137.0556, "lat": 35.41316833629001}, "404": {"name": "Yamamoto", "country": "Japan", "state": "", "county": "", "city": "Soma", "lon": 140.9292, "lat": 37.82375966209356}, "405": {"name": "Kamihoriguchi", "country": "Japan", "state": "", "county": "", "city": "Ota", "lon": 139.3292, "lat": 36.29725956274432}, "406": {"name": "Bibai", "country": "Japan", "state": "", "county": "", "city": "Bibai", "lon": 141.8233, "lat": 43.25529606273098}, "407": {"name": "Kahoku", "country": "Japan", "state": "", "county": "Nishimurayama County", "city": "", "lon": 140.3099, "lat": 38.44218175889775}, "408": {"name": "Nyukasa", "country": "Japan", "state": "", "county": "Suwa County", "city": "", "lon": 138.1747, "lat": 35.89961907175816}, "409": {"name": "Kiyose and Mizuho", "country": "Japan", "state": "", "county": "", "city": "Higashikurume", "lon": 139.5211, "lat": 35.766540425821624}, "410": {"name": "Sengamine", "country": "Japan", "state": "", "county": "Taka County", "city": "", "lon": 134.891, "lat": 35.127759139600165}, "411": {"name": "Oizumi", "country": "Japan", "state": "", "county": "Ora County", "city": "", "lon": 139.417, "lat": 36.25047518024113}, "412": {"name": "Iwaki", "country": "Japan", "state": "", "county": "", "city": "Iwaki", "lon": 140.5991, "lat": 36.96041797459329}, "413": {"name": "Siding Spring Observatory", "country": "Australia", "state": "New South Wales", "county": "", "city": "", "lon": 149.06608, "lat": -31.277054019416184}, "414": {"name": "Mount Stromlo", "country": "Australia", "state": "", "county": "", "city": "Canberra", "lon": 149.0077, "lat": -35.32049947588236}, "415": {"name": "Kambah", "country": "Australia", "state": "", "county": "", "city": "", "lon": 149.0636, "lat": -35.39693922206301}, "416": {"name": "Barton", "country": "Australia", "state": "", "county": "", "city": "", "lon": 149.1336, "lat": -35.31160678910527}, "417": {"name": "Yanagida Astronomical Observatory", "country": "Japan", "state": "", "county": "Houshi County", "city": "", "lon": 137.1371, "lat": 37.3346700815311}, "418": {"name": "Tamworth", "country": "Australia", "state": "New South Wales", "county": "", "city": "Tamworth", "lon": 150.94034, "lat": -31.081444081699516}, "419": {"name": "Windsor", "country": "Australia", "state": "New South Wales", "county": "", "city": "Sydney", "lon": 150.8329, "lat": -33.608595537324476}, "420": {"name": "Sydney", "country": "Australia", "state": "New South Wales", "county": "", "city": "Sydney", "lon": 151.205, "lat": -33.86153754947774}, "421": {"name": "Mt. Kajigamori, Otoyo", "country": "Japan", "state": "", "county": "Nagaoka County", "city": "", "lon": 133.765, "lat": 33.755947651272656}, "422": {"name": "Loomberah", "country": "Australia", "state": "New South Wales", "county": "", "city": "", "lon": 151.0461, "lat": -31.334629593602767}, "423": {"name": "North Ryde", "country": "Australia", "state": "New South Wales", "county": "", "city": "Sydney", "lon": 151.12473, "lat": -33.804953512177356}, "424": {"name": "Macquarie", "country": "Australia", "state": "", "county": "", "city": "", "lon": 149.0658, "lat": -35.25514157098963}, "425": {"name": "Taylor Range Observatory, Brisbane", "country": "Australia", "state": "Queensland", "county": "", "city": "", "lon": 152.9316, "lat": -27.463272369711646}, "426": {"name": "Woomera", "country": "Australia", "state": "South Australia", "county": "Pastoral Unincorporated Area", "city": "", "lon": 136.8217, "lat": -31.19655316025836}, "427": {"name": "Stockport", "country": "Australia", "state": "South Australia", "county": "", "city": "", "lon": 138.7283, "lat": -34.33326912234981}, "428": {"name": "Reedy Creek", "country": "Australia", "state": "Queensland", "county": "", "city": "Gold Coast City", "lon": 153.397, "lat": -28.110267009816692}, "429": {"name": "Hawker", "country": "Australia", "state": "", "county": "", "city": "", "lon": 149.04, "lat": -35.25273795706709}, "430": {"name": "Rainbow Observatory, near Coonabarabran", "country": "Australia", "state": "New South Wales", "county": "", "city": "", "lon": 149.2123, "lat": -31.278317896875997}, "431": {"name": "Mt. Tarana Observatory, Bathurst", "country": "Australia", "state": "New South Wales", "county": "", "city": "", "lon": 149.7578, "lat": -33.43462474456855}, "432": {"name": "Boambee", "country": "Australia", "state": "New South Wales", "county": "", "city": "", "lon": 153.08222, "lat": -30.339156673026448}, "433": {"name": "Bagnall Beach Observatory", "country": "Australia", "state": "New South Wales", "county": "", "city": "", "lon": 152.1078, "lat": -32.7384752128074}, "434": {"name": "S. Benedetto Po", "country": "Italy", "state": "Lombardy", "county": "Mantua", "city": "", "lon": 10.9206, "lat": 45.052010005833665}, "435": {"name": "G. Colombo Astronomical Observatory, Padua", "country": "Italy", "state": "Veneto", "county": "Province of Padua", "city": "Padua", "lon": 11.8936, "lat": 45.404253644623346}, "436": {"name": "Osservatorio di Livergnano", "country": "Italy", "state": "Emilia-Romagna", "county": "Bologna", "city": "", "lon": 11.3356, "lat": 44.32801366950893}, "437": {"name": "Haverford", "country": "United States", "state": "Pennsylvania", "county": "Delaware County", "city": "Haverford Township", "lon": 284.6971, "lat": 40.010983551737795}, "438": {"name": "Smith College Observatory, Northampton", "country": "United States", "state": "Massachusetts", "county": "Hampshire County", "city": "Northampton", "lon": 287.3621, "lat": 42.31729255438186}, "439": {"name": "ROTSE-III, Los Alamos", "country": "United States", "state": "New Mexico", "county": "Sandoval County", "city": "", "lon": 253.2539, "lat": 35.86920655112834}, "440": {"name": "Elginfield Observatory", "country": "Canada", "state": "Ontario", "county": "Middlesex County", "city": "Lucan Biddulph", "lon": 278.6842, "lat": 43.19202489881089}, "441": {"name": "Swilken Brae, St. Andrews", "country": "United Kingdom", "state": "Scotland", "county": "Fife", "city": "", "lon": 357.1697, "lat": 56.3375126385004}, "442": {"name": "Gualba Observatory", "country": "Spain", "state": "Castile and Le\u00f3n", "county": "", "city": "", "lon": 357.4822, "lat": 41.70786801587166}, "443": {"name": "Obs. Astronomico Plomer, Buenos Aires", "country": "Argentina", "state": "Buenos Aires", "county": "", "city": "", "lon": 301.4656, "lat": -34.6332657010758}, "444": {"name": "Star Cruiser Observatory", "country": "United States", "state": "California", "county": "Riverside County", "city": "", "lon": 243.2794, "lat": 33.483597426127595}, "445": {"name": "Observatorio d'Ontinyent", "country": "Spain", "state": "Valencian Community", "county": "", "city": "", "lon": 359.42, "lat": 38.81805950628092}, "446": {"name": "Kingsnake Observatory, Seguin", "country": "United States", "state": "Texas", "county": "Guadalupe County", "city": "", "lon": 262.1666, "lat": 29.569090900037768}, "447": {"name": "Centennial Observatory", "country": "United States", "state": "Colorado", "county": "Arapahoe County", "city": "Centennial", "lon": 255.2056, "lat": 39.62122181737832}, "448": {"name": "Desert Moon Observatory, Las Cruces", "country": "United States", "state": "New Mexico", "county": "Do\u00f1a Ana County", "city": "Las Cruces", "lon": 253.2801, "lat": 32.38758461958284}, "449": {"name": "Griffin Hunter Observatory, Bethune", "country": "United States", "state": "South Carolina", "county": "Kershaw County", "city": "", "lon": 279.6503, "lat": 34.3836682436569}, "450": {"name": "Carla Jane Observatory, Charlotte", "country": "United States", "state": "North Carolina", "county": "Mecklenburg County", "city": "Charlotte", "lon": 279.3339, "lat": 35.151405360844464}, "451": {"name": "West Skies Observatory, Mulvane", "country": "United States", "state": "Kansas", "county": "Sedgwick County", "city": "", "lon": 262.7569, "lat": 37.491888402662845}, "452": {"name": "Big Cypress Observatory, Fort Lauderdale", "country": "United States", "state": "Florida", "county": "Collier County", "city": "", "lon": 279.1063, "lat": 26.178654048765807}, "453": {"name": "Edwards Raven Observatory", "country": "United States", "state": "California", "county": "Kern County", "city": "", "lon": 242.1331, "lat": 34.98463626797854}, "454": {"name": "Maryland Space Grant Consortium Observatory", "country": "United States", "state": "Maryland", "county": "", "city": "Baltimore", "lon": 283.37678, "lat": 39.3318090686098}, "455": {"name": "CBA Concord", "country": "United States", "state": "California", "county": "Contra Costa County", "city": "Concord", "lon": 237.9636, "lat": 37.98997463717559}, "456": {"name": "Daventry Observatory", "country": "United Kingdom", "state": "England", "county": "West Northamptonshire", "city": "", "lon": 358.8278, "lat": 52.25259288087735}, "457": {"name": "Partizanske", "country": "Slovakia", "state": "Region of Tren\u010d\u00edn", "county": "District of Partiz\u00e1nske", "city": "", "lon": 18.3403, "lat": 48.62849266797863}, "458": {"name": "Guadarrama Observatory", "country": "Spain", "state": "Community of Madrid", "county": "", "city": "", "lon": 355.9806, "lat": 40.647201399698275}, "459": {"name": "Smith River Observatory, Danbury", "country": "United States", "state": "New Hampshire", "county": "Merrimack County", "city": "", "lon": 288.1172, "lat": 43.54083766240851}, "460": {"name": "Area 52 Observatory, Nashville", "country": "United States", "state": "Arkansas", "county": "Howard County", "city": "", "lon": 265.9981, "lat": 33.98226008224004}, "461": {"name": "University of Szeged, Piszkesteto Stn. (Konkoly)", "country": "Hungary", "state": "", "county": "Heves", "city": "", "lon": 19.8943, "lat": 47.91804445901921}, "462": {"name": "Mount Belleview Observatory", "country": "United States", "state": "Maryland", "county": "Prince George's County", "city": "Hyattsville", "lon": 283.0842, "lat": 38.92125077530463}, "463": {"name": "Sommers-Bausch Observatory, Boulder", "country": "United States", "state": "Colorado", "county": "Boulder County", "city": "Boulder", "lon": 254.7375, "lat": 40.00402286799471}, "464": {"name": "Toby Point Observatory, Narragansett", "country": "United States", "state": "Rhode Island", "county": "South County", "city": "", "lon": 288.5013, "lat": 41.41071169856374}, "465": {"name": "Takapuna", "country": "New Zealand", "state": "Auckland", "county": "", "city": "Devonport-Takapuna", "lon": 174.7801, "lat": -36.8035259157538}, "466": {"name": "Mount Molehill Observatory, Auckland", "country": "New Zealand", "state": "Auckland", "county": "", "city": "M\u0101ngere-\u014ct\u0101huhu", "lon": 174.8487, "lat": -36.94215285855621}, "467": {"name": "Auckland Observatory", "country": "New Zealand", "state": "Auckland", "county": "", "city": "Maungakiekie-T\u0101maki", "lon": 174.7766, "lat": -36.90789742679781}, "468": {"name": "Astronomical Observatory, Campo Catino", "country": "Italy", "state": "Lazio", "county": "Frosinone", "city": "", "lon": 13.3296, "lat": 41.821089274317835}, "469": {"name": "Courroux", "country": "Switzerland", "state": "Jura", "county": "District de Del\u00e9mont", "city": "", "lon": 7.382, "lat": 47.356254398092446}, "470": {"name": "Ceccano", "country": "Italy", "state": "Lazio", "county": "Frosinone", "city": "", "lon": 13.32756, "lat": 41.57027889566444}, "471": {"name": "Houstrup", "country": "Denmark", "state": "", "county": "", "city": "", "lon": 8.2389, "lat": 55.78159591198238}, "472": {"name": "Merlette", "country": "France", "state": "Provence-Alpes-C\u00f4te d'Azur", "county": "Hautes-Alpes", "city": "", "lon": 6.3203, "lat": 44.69455482347665}, "473": {"name": "Remanzacco", "country": "Italy", "state": "Friuli-Venezia Giulia", "county": "Udine", "city": "", "lon": 13.31661, "lat": 46.0863645134519}, "474": {"name": "Mount John Observatory, Lake Tekapo", "country": "New Zealand", "state": "Canterbury", "county": "Mackenzie District", "city": "", "lon": 170.46496, "lat": -43.98738488413231}, "475": {"name": "Turin (before 1913)", "country": "Italy", "state": "Piedmont", "county": "Torino", "city": "Turin", "lon": 7.6965, "lat": 45.06905164832852}, "476": {"name": "Grange Observatory, Bussoleno", "country": "Italy", "state": "Piedmont", "county": "Torino", "city": "", "lon": 7.14074, "lat": 45.142171497788766}, "477": {"name": "Galleywood", "country": "United Kingdom", "state": "England", "county": "Essex", "city": "Chelmsford", "lon": 0.4856, "lat": 51.70263211501241}, "478": {"name": "Lamalou-les-Bains", "country": "France", "state": "Occitania", "county": "H\u00e9rault", "city": "", "lon": 3.0896, "lat": 43.58872062934832}, "479": {"name": "Sollies-Pont", "country": "France", "state": "Provence-Alpes-C\u00f4te d'Azur", "county": "Var", "city": "", "lon": 6.0505, "lat": 43.19357104724079}, "480": {"name": "Cockfield", "country": "United Kingdom", "state": "England", "county": "Suffolk", "city": "Babergh", "lon": 0.7733, "lat": 52.16647668547393}, "481": {"name": "Moorwarfen", "country": "Germany", "state": "Lower Saxony", "county": "Landkreis Friesland", "city": "", "lon": 7.93067, "lat": 53.55366705569919}, "482": {"name": "St. Andrews", "country": "United Kingdom", "state": "Scotland", "county": "Fife", "city": "", "lon": 357.1854, "lat": 56.336718367239534}, "483": {"name": "Carter Observatory, Black Birch Station", "country": "New Zealand", "state": "Marlborough", "county": "", "city": "", "lon": 173.8036, "lat": -41.74905094167453}, "484": {"name": "Happy Valley, Wellington", "country": "New Zealand", "state": "Wellington", "county": "Wellington City", "city": "Wellington", "lon": 174.7594, "lat": -41.33950682677402}, "485": {"name": "Carter Observatory, Wellington", "country": "New Zealand", "state": "Wellington", "county": "Wellington City", "city": "Wellington", "lon": 174.7654, "lat": -41.28423705530059}, "486": {"name": "Palmerston North", "country": "New Zealand", "state": "Manawat\u016b-Whanganui", "county": "Manawat\u016b District", "city": "", "lon": 175.47, "lat": -40.237346050026595}, "487": {"name": "Macnairston Observatory", "country": "United Kingdom", "state": "Scotland", "county": "South Ayrshire", "city": "", "lon": 355.4444, "lat": 55.43933972130695}, "488": {"name": "Newcastle-upon-Tyne", "country": "United Kingdom", "state": "England", "county": "", "city": "Newcastle upon Tyne", "lon": 358.3664, "lat": 55.001344373020515}, "489": {"name": "Hemingford Abbots", "country": "United Kingdom", "state": "England", "county": "Cambridgeshire", "city": "Huntingdonshire", "lon": 359.87, "lat": 52.351620054128}, "490": {"name": "Wimborne Minster", "country": "United Kingdom", "state": "England", "county": "Dorset", "city": "", "lon": 358.0, "lat": 50.83852656101144}, "491": {"name": "Centro Astronomico de Yebes", "country": "Spain", "state": "Castile-La Mancha", "county": "", "city": "", "lon": 356.9, "lat": 40.52505042691083}, "492": {"name": "Mickleover", "country": "United Kingdom", "state": "England", "county": "Derby", "city": "Derby", "lon": 358.47, "lat": 52.9137211383907}, "493": {"name": "Calar Alto", "country": "Spain", "state": "Andalusia", "county": "Valle del Almanzora", "city": "", "lon": 357.4542, "lat": 37.22352848860021}, "494": {"name": "Stakenbridge", "country": "United Kingdom", "state": "England", "county": "Worcestershire", "city": "Wyre Forest", "lon": 357.8361, "lat": 52.41286211061509}, "495": {"name": "Altrincham", "country": "United Kingdom", "state": "England", "county": "", "city": "Trafford", "lon": 357.66247, "lat": 53.376316534016375}, "496": {"name": "Bishopstoke", "country": "United Kingdom", "state": "England", "county": "Hampshire", "city": "", "lon": 358.686, "lat": 50.962817623012796}, "497": {"name": "Loudwater", "country": "United Kingdom", "state": "England", "county": "Buckinghamshire", "city": "", "lon": 359.29449, "lat": 51.60857945892566}, "498": {"name": "Earls Barton", "country": "United Kingdom", "state": "England", "county": "North Northamptonshire", "city": "", "lon": 359.2581, "lat": 52.262096300675665}, "499": {"name": "Cheam", "country": "United Kingdom", "state": "England", "county": "", "city": "London", "lon": 359.79078, "lat": 51.36983153960937}, "500": {"name": "Geocentric", "country": "", "state": "", "county": "", "city": "", "lon": 0.0, "lat": 90.0}, "501": {"name": "Herstmonceux", "country": "United Kingdom", "state": "England", "county": "East Sussex", "city": "Wealden", "lon": 0.3475, "lat": 50.86942946381377}, "502": {"name": "Colchester", "country": "United Kingdom", "state": "England", "county": "Essex", "city": "Colchester", "lon": 0.84793, "lat": 51.91583931604791}, "503": {"name": "Cambridge", "country": "United Kingdom", "state": "England", "county": "Cambridgeshire", "city": "Cambridge", "lon": 0.0948, "lat": 52.21428662417931}, "504": {"name": "Le Creusot", "country": "France", "state": "Bourgogne-Franche-Comt\u00e9", "county": "Sa\u00f4ne-et-Loire", "city": "", "lon": 4.3944, "lat": 46.82251865025193}, "505": {"name": "Simon Stevin", "country": "Netherlands", "state": "North Brabant", "county": "", "city": "", "lon": 4.5639, "lat": 51.56627773736579}, "506": {"name": "Bendestorf", "country": "Germany", "state": "Lower Saxony", "county": "Harburg", "city": "", "lon": 9.96, "lat": 53.30344468809201}, "507": {"name": "Nyenheim", "country": "Netherlands", "state": "Gelderland", "county": "", "city": "", "lon": 5.22, "lat": 51.94920681695888}, "508": {"name": "Zeist", "country": "Netherlands", "state": "Gelderland", "county": "", "city": "", "lon": 5.29, "lat": 51.94920681695888}, "509": {"name": "La Seyne sur Mer", "country": "France", "state": "Provence-Alpes-C\u00f4te d'Azur", "county": "Var", "city": "", "lon": 5.8725, "lat": 43.09933376814138}, "510": {"name": "Siegen", "country": "Germany", "state": "North Rhine-Westphalia", "county": "Kreis Siegen-Wittgenstein", "city": "Siegen", "lon": 8.0256, "lat": 50.91028305142465}, "511": {"name": "Haute Provence", "country": "France", "state": "Provence-Alpes-C\u00f4te d'Azur", "county": "Alpes-de-Haute-Provence", "city": "", "lon": 5.7157, "lat": 43.93187265820964}, "512": {"name": "Leiden (before 1860)", "country": "Netherlands", "state": "South Holland", "county": "", "city": "Leiden", "lon": 4.4893, "lat": 52.15798086141245}, "513": {"name": "Lyons", "country": "France", "state": "Auvergne-Rh\u00f4ne-Alpes", "county": "M\u00e9tropole de Lyon", "city": "", "lon": 4.7855, "lat": 45.694785052547175}, "514": {"name": "Mundenheim (1907-1913)", "country": "Germany", "state": "Rhineland-Palatinate", "county": "", "city": "Ludwigshafen am Rhein", "lon": 8.438, "lat": 49.45627621234365}, "515": {"name": "Volkssternwarte Dhaun, near Kirn", "country": "Germany", "state": "Rhineland-Palatinate", "county": "Landkreis Bad Kreuznach", "city": "", "lon": 7.4956, "lat": 49.81490498343366}, "516": {"name": "Hamburg (before 1909)", "country": "Germany", "state": "", "county": "", "city": "Hamburg", "lon": 9.97321, "lat": 53.55107836024389}, "517": {"name": "Geneva (from 1967)", "country": "Switzerland", "state": "Vaud", "county": "District de Nyon", "city": "", "lon": 6.1358, "lat": 46.31075046683217}, "518": {"name": "Marine Observatory, Hamburg", "country": "Germany", "state": "", "county": "", "city": "Hamburg", "lon": 9.9727, "lat": 53.54767197109426}, "519": {"name": "Meschede", "country": "Germany", "state": "North Rhine-Westphalia", "county": "Hochsauerlandkreis", "city": "", "lon": 8.2867, "lat": 51.3420945601158}, "520": {"name": "Bonn", "country": "Germany", "state": "North Rhine-Westphalia", "county": "", "city": "Bonn", "lon": 7.0966, "lat": 50.728844251271155}, "521": {"name": "Remeis Observatory, Bamberg", "country": "Germany", "state": "Bavaria", "county": "", "city": "", "lon": 10.88794, "lat": 49.8845460073832}, "522": {"name": "Strasbourg", "country": "France", "state": "Grand Est", "county": "Bas-Rhin", "city": "Strasbourg", "lon": 7.7677, "lat": 48.583816571451884}, "523": {"name": "Frankfurt", "country": "Germany", "state": "Hesse", "county": "", "city": "Frankfurt", "lon": 8.6512, "lat": 50.116643387696605}, "524": {"name": "Mannheim", "country": "Germany", "state": "Baden-W\u00fcrttemberg", "county": "", "city": "Mannheim", "lon": 8.4605, "lat": 49.48489149805179}, "525": {"name": "Marburg", "country": "Germany", "state": "Hesse", "county": "Landkreis Marburg-Biedenkopf", "city": "", "lon": 8.76917, "lat": 50.811844800593974}, "526": {"name": "Kiel", "country": "Germany", "state": "Schleswig-Holstein", "county": "", "city": "Kiel", "lon": 10.1477, "lat": 54.340946778007456}, "527": {"name": "Altona", "country": "Germany", "state": "", "county": "", "city": "Hamburg", "lon": 9.9431, "lat": 53.54502678440777}, "528": {"name": "Gottingen", "country": "Germany", "state": "Lower Saxony", "county": "Landkreis G\u00f6ttingen", "city": "G\u00f6ttingen", "lon": 9.9426, "lat": 51.52992795375837}, "529": {"name": "Christiania", "country": "Norway", "state": "", "county": "", "city": "Oslo", "lon": 10.7229, "lat": 59.912143835466885}, "530": {"name": "Lubeck", "country": "Germany", "state": "Schleswig-Holstein", "county": "", "city": "L\u00fcbeck", "lon": 10.6898, "lat": 53.856797063265354}, "531": {"name": "Collegio Romano, Rome", "country": "Italy", "state": "Lazio", "county": "Roma Capitale", "city": "Rome", "lon": 12.4797, "lat": 41.898434933830025}, "532": {"name": "Munich", "country": "Germany", "state": "Bavaria", "county": "", "city": "Munich", "lon": 11.6084, "lat": 48.14608451514779}, "533": {"name": "Padua", "country": "Italy", "state": "Veneto", "county": "Province of Padua", "city": "Padua", "lon": 11.8715, "lat": 45.40019579377456}, "534": {"name": "Leipzig (since 1861)", "country": "Germany", "state": "Saxony", "county": "", "city": "Leipzig", "lon": 12.3913, "lat": 51.33493213546973}, "535": {"name": "Palermo", "country": "Italy", "state": "Sicily", "county": "Palermo", "city": "Palermo", "lon": 13.3578, "lat": 38.1120352082651}, "536": {"name": "Berlin-Babelsberg", "country": "Germany", "state": "Brandenburg", "county": "", "city": "Potsdam", "lon": 13.1062, "lat": 52.40667660186741}, "537": {"name": "Urania Observatory, Berlin", "country": "Germany", "state": "", "county": "", "city": "Berlin", "lon": 13.3642, "lat": 52.52601982213488}, "538": {"name": "Pola", "country": "Croatia", "state": "", "county": "Istria County", "city": "Grad Pula", "lon": 13.8461, "lat": 44.863299804760345}, "539": {"name": "Kremsmunster", "country": "Austria", "state": "", "county": "Bezirk Kirchdorf", "city": "", "lon": 14.1316, "lat": 48.05638570585914}, "540": {"name": "Linz", "country": "Austria", "state": "", "county": "Bezirk Urfahr-Umgebung", "city": "", "lon": 14.2753, "lat": 48.44248665950776}, "541": {"name": "Prague", "country": "Czechia", "state": "Prague", "county": "", "city": "Prague", "lon": 14.3953, "lat": 50.07663412873655}, "542": {"name": "Falkensee", "country": "Germany", "state": "Brandenburg", "county": "Havelland", "city": "", "lon": 13.0374, "lat": 52.567262933487804}, "543": {"name": "Leipzig (before 1861)", "country": "Germany", "state": "Saxony", "county": "", "city": "Leipzig", "lon": 12.3688, "lat": 51.33797612397861}, "544": {"name": "Wilhelm Foerster Observatory, Berlin", "country": "Germany", "state": "", "county": "", "city": "Berlin", "lon": 13.35131, "lat": 52.457377937899615}, "545": {"name": "Vienna (before 1879)", "country": "Austria", "state": "", "county": "", "city": "Vienna", "lon": 16.3817, "lat": 48.209617152649386}, "546": {"name": "Oppolzer Observatory, Vienna", "country": "Austria", "state": "", "county": "", "city": "Vienna", "lon": 16.3549, "lat": 48.21528642127486}, "547": {"name": "Breslau", "country": "Poland", "state": "Lower Silesian Voivodeship", "county": "", "city": "Wroc\u0142aw", "lon": 17.0363, "lat": 51.11557531616941}, "548": {"name": "Berlin (1835-1913)", "country": "Germany", "state": "", "county": "", "city": "Berlin", "lon": 13.395, "lat": 52.50445885771776}, "549": {"name": "Uppsala", "country": "Sweden", "state": "", "county": "Uppsala County", "city": "Uppsala", "lon": 17.6257, "lat": 59.8580361614783}, "550": {"name": "Schwerin", "country": "Germany", "state": "Mecklenburg-Vorpommern", "county": "", "city": "", "lon": 11.4196, "lat": 53.62758336183918}, "551": {"name": "Hurbanovo, formerly O'Gyalla", "country": "Slovakia", "state": "Region of Nitra", "county": "District of Kom\u00e1rno", "city": "", "lon": 18.1895, "lat": 47.874158279273985}, "552": {"name": "Osservatorio S. Vittore, Bologna", "country": "Italy", "state": "Emilia-Romagna", "county": "Bologna", "city": "Bologna", "lon": 11.3418, "lat": 44.46801788478558}, "553": {"name": "Chorzow", "country": "Poland", "state": "Silesian Voivodeship", "county": "", "city": "Chorz\u00f3w", "lon": 18.9938, "lat": 50.29974628305349}, "554": {"name": "Burgsolms Observatory, Wetzlar", "country": "Germany", "state": "Hesse", "county": "Lahn-Dill-Kreis", "city": "", "lon": 8.3959, "lat": 50.5392845055208}, "555": {"name": "Cracow-Fort Skala", "country": "Poland", "state": "Lesser Poland Voivodeship", "county": "", "city": "Krakow", "lon": 19.8263, "lat": 50.054242604440034}, "556": {"name": "Reintal, near Munich", "country": "Germany", "state": "Bavaria", "county": "Landkreis Garmisch-Partenkirchen", "city": "", "lon": 11.26, "lat": 47.58967026130473}, "557": {"name": "Ondrejov", "country": "Czechia", "state": "Central Bohemia", "county": "", "city": "", "lon": 14.77961, "lat": 49.914799863867835}, "558": {"name": "Warsaw", "country": "Poland", "state": "Masovian Voivodeship", "county": "", "city": "Warsaw", "lon": 21.0303, "lat": 52.21785461800492}, "559": {"name": "Serra La Nave", "country": "Italy", "state": "Sicily", "county": "Catania", "city": "", "lon": 14.98, "lat": 37.618096996008646}, "560": {"name": "Madonna di Dossobuono", "country": "Italy", "state": "Veneto", "county": "Verona", "city": "Verona", "lon": 10.931, "lat": 45.40745847614745}, "561": {"name": "Piszkesteto Stn. (Konkoly)", "country": "Hungary", "state": "", "county": "Heves", "city": "", "lon": 19.8943, "lat": 47.91804445901921}, "562": {"name": "Figl Observatory, Vienna", "country": "Austria", "state": "Lower Austria", "county": "Bezirk Baden", "city": "", "lon": 15.9236, "lat": 48.083750920082394}, "563": {"name": "Seewalchen", "country": "Austria", "state": "", "county": "Bezirk V\u00f6cklabruck", "city": "", "lon": 13.6, "lat": 47.95252570320942}, "564": {"name": "Herrsching", "country": "Germany", "state": "Bavaria", "county": "Landkreis Starnberg", "city": "", "lon": 11.19, "lat": 48.02924648058231}, "565": {"name": "Bassano Bresciano", "country": "Italy", "state": "Lombardy", "county": "Brescia", "city": "", "lon": 10.1344, "lat": 45.31781773322405}, "566": {"name": "Haleakala-NEAT/GEODSS", "country": "United States", "state": "Hawaii", "county": "Maui County", "city": "", "lon": 203.7424, "lat": 20.708373178414558}, "567": {"name": "Chions", "country": "Italy", "state": "Friuli-Venezia Giulia", "county": "Pordenone", "city": "", "lon": 12.7117, "lat": 45.843335119406284}, "568": {"name": "Maunakea", "country": "United States", "state": "Hawaii", "county": "Hawai\u02bbi County", "city": "", "lon": 204.5278, "lat": 19.826114209687773}, "569": {"name": "Helsinki", "country": "Finland", "state": "", "county": "Uusimaa", "city": "Helsinki", "lon": 24.9587, "lat": 60.1552732532773}, "570": {"name": "Vilnius (since 1939)", "country": "Lithuania", "state": "Vilnius County", "county": "", "city": "Vilnius", "lon": 25.299, "lat": 54.682113928102986}, "571": {"name": "Cavriana", "country": "Italy", "state": "Lombardy", "county": "Mantua", "city": "", "lon": 10.63, "lat": 45.35470218232901}, "572": {"name": "Cologne", "country": "Germany", "state": "North Rhine-Westphalia", "county": "", "city": "Cologne", "lon": 6.89, "lat": 50.927517766603515}, "573": {"name": "Eldagsen", "country": "Germany", "state": "Lower Saxony", "county": "Region Hannover", "city": "", "lon": 9.6612, "lat": 52.175127032787714}, "574": {"name": "Gottolengo", "country": "Italy", "state": "Lombardy", "county": "Brescia", "city": "", "lon": 10.2667, "lat": 45.29711996755062}, "575": {"name": "La Chaux de Fonds", "country": "Switzerland", "state": "Neuch\u00e2tel", "county": "", "city": "", "lon": 6.808, "lat": 47.08941339887965}, "576": {"name": "Burwash", "country": "United Kingdom", "state": "England", "county": "East Sussex", "city": "Rother", "lon": 0.376, "lat": 50.994965724759616}, "577": {"name": "Metzerlen Observatory", "country": "Switzerland", "state": "Solothurn", "county": "Amtei Dorneck-Thierstein", "city": "", "lon": 7.5, "lat": 47.46273325812517}, "578": {"name": "Linden Observatory", "country": "South Africa", "state": "Gauteng", "county": "City of Johannesburg Metropolitan Municipality", "city": "Johannesburg", "lon": 27.99, "lat": -26.20448047624577}, "579": {"name": "Novi Ligure", "country": "Italy", "state": "Piedmont", "county": "Alessandria", "city": "", "lon": 8.85, "lat": 44.78661988637153}, "580": {"name": "Graz", "country": "Austria", "state": "Styria", "county": "", "city": "Graz", "lon": 15.4936, "lat": 47.06725082657899}, "581": {"name": "Sedgefield", "country": "South Africa", "state": "Western Cape", "county": "", "city": "George", "lon": 22.8, "lat": -33.99548612352045}, "582": {"name": "Orwell Park", "country": "United Kingdom", "state": "England", "county": "Suffolk", "city": "East Suffolk", "lon": 1.2408, "lat": 52.00926903727491}, "583": {"name": "Odesa-Mayaky", "country": "Ukraine", "state": "Odesa Oblast", "county": "", "city": "", "lon": 30.2717, "lat": 46.397287295695115}, "584": {"name": "Leningrad", "country": "Russia", "state": "Saint Petersburg", "county": "", "city": "Saint Petersburg", "lon": 30.2946, "lat": 59.94239203506618}, "585": {"name": "Kyiv comet station", "country": "Ukraine", "state": "Kyiv Oblast", "county": "", "city": "", "lon": 30.52462, "lat": 50.29796581700503}, "586": {"name": "Pic du Midi", "country": "France", "state": "Occitania", "county": "Hautes Pyrenees", "city": "", "lon": 0.1423, "lat": 42.936552140914394}, "587": {"name": "Sormano", "country": "Italy", "state": "Lombardy", "county": "Como", "city": "", "lon": 9.22918, "lat": 45.8829463347621}, "588": {"name": "Eremo di Tizzano", "country": "Italy", "state": "Emilia-Romagna", "county": "Bologna", "city": "", "lon": 11.25, "lat": 44.46198762854264}, "589": {"name": "Santa Lucia Stroncone", "country": "Italy", "state": "Umbria", "county": "Terni", "city": "", "lon": 12.64369, "lat": 42.51942253015661}, "590": {"name": "Metzerlen", "country": "Switzerland", "state": "Solothurn", "county": "Amtei Dorneck-Thierstein", "city": "", "lon": 7.46, "lat": 47.46273325812517}, "591": {"name": "Resse Observatory", "country": "Germany", "state": "Lower Saxony", "county": "Region Hannover", "city": "", "lon": 9.6258, "lat": 52.507324555259586}, "592": {"name": "Solingen", "country": "Germany", "state": "North Rhine-Westphalia", "county": "", "city": "Solingen", "lon": 7.02114, "lat": 51.174337923256886}, "593": {"name": "Monte Argentario", "country": "Italy", "state": "Tuscany", "county": "Grosseto", "city": "", "lon": 11.17, "lat": 42.43058856756317}, "594": {"name": "Monte Autore", "country": "Italy", "state": "Lazio", "county": "Roma Capitale", "city": "", "lon": 13.2033, "lat": 41.95743002283403}, "595": {"name": "Farra d'Isonzo", "country": "Italy", "state": "Friuli-Venezia Giulia", "county": "Gorizia", "city": "", "lon": 13.52578, "lat": 45.9157306166599}, "596": {"name": "Colleverde di Guidonia", "country": "Italy", "state": "Lazio", "county": "Roma Capitale", "city": "", "lon": 12.6183, "lat": 41.98384182416513}, "597": {"name": "Springe", "country": "Germany", "state": "Lower Saxony", "county": "Region Hannover", "city": "", "lon": 9.6631, "lat": 52.17049815135442}, "598": {"name": "Loiano", "country": "Italy", "state": "Emilia-Romagna", "county": "Bologna", "city": "", "lon": 11.33409, "lat": 44.259204922422114}, "599": {"name": "Campo Imperatore-CINEOS", "country": "Italy", "state": "Abruzzo", "county": "L'Aquila", "city": "L'Aquila", "lon": 13.55764, "lat": 42.44413353938608}, "600": {"name": "TLC Observatory, Bologna", "country": "Italy", "state": "Emilia-Romagna", "county": "Bologna", "city": "", "lon": 11.4708, "lat": 44.35883750720534}, "601": {"name": "Engelhardt Observatory, Dresden", "country": "Germany", "state": "Saxony", "county": "", "city": "Dresden", "lon": 13.7281, "lat": 51.03812585771544}, "602": {"name": "Urania Observatory, Vienna", "country": "Austria", "state": "", "county": "", "city": "Vienna", "lon": 16.3854, "lat": 48.21204684760136}, "603": {"name": "Bothkamp", "country": "Germany", "state": "Schleswig-Holstein", "county": "Pl\u00f6n", "city": "", "lon": 10.13, "lat": 54.202597292504194}, "604": {"name": "Archenhold Sternwarte, Berlin-Treptow", "country": "Germany", "state": "", "county": "", "city": "Berlin", "lon": 13.47524, "lat": 52.48675816053032}, "605": {"name": "Marl", "country": "Germany", "state": "North Rhine-Westphalia", "county": "Kreis Recklinghausen", "city": "", "lon": 7.113, "lat": 51.67407299789252}, "606": {"name": "Norderstedt", "country": "Germany", "state": "Schleswig-Holstein", "county": "Kreis Segeberg", "city": "", "lon": 9.9956, "lat": 53.684182888698814}, "607": {"name": "Hagen Observatory, Ronkhausen", "country": "Germany", "state": "North Rhine-Westphalia", "county": "Kreis Olpe", "city": "", "lon": 8.0, "lat": 51.21891050328133}, "608": {"name": "Haleakala-AMOS", "country": "United States", "state": "Hawaii", "county": "Maui County", "city": "", "lon": 203.742, "lat": 20.708373178414558}, "609": {"name": "Osservatorio Polino", "country": "Italy", "state": "Umbria", "county": "Terni", "city": "", "lon": 12.8533, "lat": 42.5708398409117}, "610": {"name": "Pianoro", "country": "Italy", "state": "Emilia-Romagna", "county": "Bologna", "city": "", "lon": 11.3431, "lat": 44.39170543694796}, "611": {"name": "Starkenburg Sternwarte, Heppenheim", "country": "Germany", "state": "Hesse", "county": "Kreis Bergstra\u00dfe", "city": "", "lon": 8.6531, "lat": 49.647787099179446}, "612": {"name": "Lenkerbeck", "country": "Germany", "state": "North Rhine-Westphalia", "county": "", "city": "Essen", "lon": 7.1, "lat": 51.41139321257877}, "613": {"name": "Heisingen", "country": "Germany", "state": "North Rhine-Westphalia", "county": "", "city": "Essen", "lon": 7.0709, "lat": 51.40960082931141}, "614": {"name": "Soisy-sur-Seine", "country": "France", "state": "Ile-de-France", "county": "Essonne", "city": "", "lon": 2.467, "lat": 48.635122768186086}, "615": {"name": "St. Veran", "country": "France", "state": "Provence-Alpes-C\u00f4te d'Azur", "county": "Hautes-Alpes", "city": "", "lon": 6.9067, "lat": 44.69785198386943}, "616": {"name": "Brno", "country": "Czechia", "state": "Southeast", "county": "Jihomoravsk\u00fd kraj", "city": "Brno", "lon": 16.58348, "lat": 49.20443079840675}, "617": {"name": "Arbonne la Foret", "country": "France", "state": "Ile-de-France", "county": "Seine-et-Marne", "city": "", "lon": 2.5725, "lat": 48.41610737021}, "618": {"name": "Martigues", "country": "France", "state": "Provence-Alpes-C\u00f4te d'Azur", "county": "Bouches-du-Rh\u00f4ne", "city": "", "lon": 5.0077, "lat": 43.41936902118307}, "619": {"name": "Sabadell", "country": "Spain", "state": "Catalonia", "county": "Vall\u00e8s Occidental", "city": "Sabadell", "lon": 2.09013, "lat": 41.55003997838053}, "620": {"name": "Observatorio Astronomico de Mallorca", "country": "Spain", "state": "Balearic Islands", "county": "Pla de Mallorca", "city": "", "lon": 2.9517, "lat": 39.64397754080946}, "621": {"name": "Bergisch Gladbach", "country": "Germany", "state": "North Rhine-Westphalia", "county": "Oberbergischer Kreis", "city": "", "lon": 7.48503, "lat": 51.08638769637592}, "622": {"name": "Oberwichtrach", "country": "Switzerland", "state": "Bern", "county": "Frutigen-Niedersimmental administrative district", "city": "", "lon": 7.568, "lat": 46.645160322418995}, "623": {"name": "Liege", "country": "Belgium", "state": "Li\u00e8ge", "county": "Li\u00e8ge", "city": "Li\u00e8ge", "lon": 5.5667, "lat": 50.61835178806606}, "624": {"name": "Dertingen", "country": "Germany", "state": "Baden-W\u00fcrttemberg", "county": "Main-Tauber-Kreis", "city": "", "lon": 9.6167, "lat": 49.762982877529495}, "625": {"name": "Kihei-AMOS Remote Maui Experimental Site", "country": "United States", "state": "Hawaii", "county": "Maui County", "city": "", "lon": 203.5683, "lat": 20.746066882258955}, "626": {"name": "Geel", "country": "Belgium", "state": "Antwerp", "county": "Turnhout", "city": "", "lon": 4.9864, "lat": 51.15720780046924}, "627": {"name": "Blauvac", "country": "France", "state": "Provence-Alpes-C\u00f4te d'Azur", "county": "Vaucluse", "city": "", "lon": 5.2146, "lat": 44.04222368673612}, "628": {"name": "Mulheim-Ruhr", "country": "Germany", "state": "North Rhine-Westphalia", "county": "", "city": "M\u00fclheim an der Ruhr", "lon": 6.84366, "lat": 51.42742739727974}, "629": {"name": "Szeged Observatory", "country": "Hungary", "state": "", "county": "Csongr\u00e1d-Csan\u00e1d", "city": "Szeged", "lon": 20.1511, "lat": 46.25035903568986}, "630": {"name": "Osenbach", "country": "France", "state": "Grand Est", "county": "Haut-Rhin", "city": "", "lon": 7.2367, "lat": 47.99298865205523}, "631": {"name": "Hamburg-Georgswerder", "country": "Germany", "state": "", "county": "", "city": "Hamburg", "lon": 10.02293, "lat": 53.50896643300171}, "632": {"name": "San Polo A Mosciano", "country": "Italy", "state": "Tuscany", "county": "Florence", "city": "", "lon": 11.1739, "lat": 43.728392430252235}, "633": {"name": "Romito", "country": "Italy", "state": "Liguria", "county": "La Spezia", "city": "", "lon": 9.9339, "lat": 44.099838487744066}, "634": {"name": "Crolles", "country": "France", "state": "Auvergne-Rh\u00f4ne-Alpes", "county": "Is\u00e8re", "city": "", "lon": 5.1456, "lat": 45.527176906374514},